ULIKey,Address,Village,County,Model,Price,Bedrooms,Baths,SquareFeet,Garage,Pool,Latitude,Longitude,Status,SaleType,YouTubeVideoId,VLSNumber
S100.104,1827 KYRLE TER,The Village of Poinciana,Sumter,Camellia,456000,3,2,1887,"2 Car, plus Golf Car Garage",,28.88886119,-81.99569757,A,P,,243940
S130.120,454 KEYHOLE ST,The Village of Amelia,Sumter,Amarillo,378000,3,2,1392,"2 Car, plus Golf Car Garage",,28.88352578,-81.95963634,A,P,IqewlYP1Od8,244264
L25.86,3111 IVES LN,The Village of Pine Ridge,Lake,Gardenia,529000,3,2,1964,2 Car Garage,,28.85774032,-81.94489167,A,P,,246734
L104.10,2964 WOTRING WAY,The Village of Pine Ridge,Lake,Arlington,394000,3,2,1652,"1 Car, plus Golf Car Garage",,28.86138551,-81.94836168,A,P,iiFGPmfmf-g,244795
S620.36,2384 SNELL ST,The Village of DeSoto,Sumter,Bonifay,359900,3,2,1409,2 Car Garage,,28.79014787,-82.01375475,A,P,_e8qAwa7NKY,245883
S42V.22,5878 FLINT LOOP,The Village of Monarch Grove,Sumter,Bridgeport-5/Osprey,1325000,3,2.5+,2361,"2 Car, plus Golf Car Garage",,28.79112317,-81.99777227,A,P,RzZ2nYyqRDM,245529
S44A.31,975 WILDER PATH,The Village of Chitty Chatty,Sumter,Bridgeport,799000,3,2.5,2163,"2 Car, plus Golf Car Garage",,28.81609172,-81.97452081,A,P,,245373
L56V.110,6887 TINA ST,The Village of Lake Denham,Lake,Days End,295000,2,2,1269,2 Car Garage,,28.76558313,-81.94256297,A,P,,245842
