ULIKey,Address,Village,County,Model,Price,Bedrooms,Baths,SquareFeet,Garage,Pool,Latitude,Longitude,Status,SaleType,YouTubeVideoId,VLSNumber
S603.132,1705 EL NINO ST,The Village Alhambra,Sumter,Colony,299000,2,2,1121,"1 Car, plus Golf Car Garage",,28.95540684,-81.99216565,A,P,,245445
S601.38,1613 NAVIDAD ST,The Village Alhambra,Sumter,Colony,299000,2,2,1121,"1 Car, plus Golf Car Garage",,28.95371062,-81.98800002,A,P,TN1yKTt7QaQ,246084
S601.54,1620 DURAN DR,The Village Alhambra,Sumter,Colony,268900,2,2,1121,"1 Car, plus Golf Car Garage",,28.95235184,-81.98804154,A,P,,246032
S601.58,1628 DURAN DR,The Village Alhambra,Sumter,Colony,269500,2,2,1121,"1 Car, plus Golf Car Garage",,28.95220396,-81.98860622,A,P,,245863
S601.89,2608 BOTELLO AVE,The Village Alhambra,Sumter,Colony,258000,2,2,1121,"1 Car, plus Golf Car Garage",,28.95476628,-81.99016829,A,P,,243683
S24.24,2509 PRIVADA DR,The Village Alhambra,Sumter,Stetson III,329000,3,2,1527,2 Car Garage,,28.95148551,-81.99080781,A,P,zuEjKHARKh8,244524
S24.84,2535 BOTELLO AVE,The Village Alhambra,Sumter,Maverick III,329000,3,2,1210,"1 Car, plus Golf Car Garage",,28.95305112,-81.99131978,A,P,,245955
S31.49,2718 PRIVADA DR,The Village Alhambra,Sumter,Corpus Christi,289000,2,2,1229,,,28.95329483,-81.99705653,A,P,,245456
S31.90,2713 PRIVADA DR,The Village Alhambra,Sumter,Stetson,289000,2,2,1248,2 Car Garage,,28.95363446,-81.99636152,A,P,,243922
S31.126,2799 PRIVADA DR,The Village Alhambra,Sumter,Maverick,269000,2,2,1091,"1 Car, plus Golf Car Garage",,28.95475311,-81.99525751,A,P,,244769
L7.1227,1619 W SCHWARTZ BLVD,The Village of Country Club Hills,Lake,Manufactured Home,219000,2,2,1300,,,28.95342747,-81.95402597,A,P,,245573
L7.1260,1765 LAUREN LN,The Village of Country Club Hills,Lake,Manufactured Home,219555,2,2,1270,,,28.95502115,-81.95233154,A,P,,244415
L7.1401,1731 W SCHWARTZ BLVD,The Village of Country Club Hills,Lake,Manufactured Home,265000,2,2,1092,,,28.95799621,-81.95059159,A,P,,244933
L7.1407,1743 W SCHWARTZ BLVD,The Village of Country Club Hills,Lake,Manufactured Home,115900,0,0,0,,,28.95803071,-81.9493937,A,P,,245658
L7.1430,1757 W SCHWARTZ BLVD,The Village of Country Club Hills,Lake,Sun Kissed III,339900,3,2,1392,2 Car Garage,,28.95943084,-81.94939706,A,P,,244818
L8.1513,1716 LILLY LN,The Village of Country Club Hills,Lake,Manufactured Home,249900,2,2,1448,,,28.95564922,-81.94839101,A,P,ioyidzrKfnY,245237
L8.1522,1705 LILLY LN,The Village of Country Club Hills,Lake,Manufactured Home,219942,2,2,1352,,,28.95650345,-81.94699512,A,P,,244384
L8.1535,939 OLEANDER ST,The Village of Country Club Hills,Lake,Manufactured Home,189900,2,2,1092,,,28.95765478,-81.94595687,A,P,,246152
L8.1598,1705 MAGNOLIA AVE,The Village of Country Club Hills,Lake,Manufactured Home,179900,2,2,1092,,,28.95556687,-81.94707124,A,P,,245572
L8.1603,1631 MAGNOLIA AVE,The Village of Country Club Hills,Lake,Manufactured Home,205000,2,2,1040,,,28.95471557,-81.94644305,A,P,Jj5IV8DVo3M,244910
L8.1704,911 ORCHID ST,The Village of Country Club Hills,Lake,Manufactured Home,224900,2,2,1342,,,28.95795899,-81.94354773,A,P,,245687
L8.1717,937 ORCHID ST,The Village of Country Club Hills,Lake,Manufactured Home,219900,3,2,1365,,,28.95617247,-81.94529247,A,P,,246067
L8.1837,1858 W SCHWARTZ BLVD,The Village of Country Club Hills,Lake,Manufactured Home,199900,2,2,1139,,,28.95887946,-81.94101455,A,P,,245479
L8.1908,1833 W SCHWARTZ BLVD,The Village of Country Club Hills,Lake,Cedar Key,338500,3,3,1830,2 Car Garage,,28.95979878,-81.94357595,A,P,,244707
L8.1951,1873 W SCHWARTZ BLVD,The Village of Country Club Hills,Lake,Manufactured Home,239000,2,2,1182,,,28.95987307,-81.93984811,A,P,-qgxylMhZ7M,245659
L9.2520,1718 PEBBLE BEACH LN,The Village of Country Club Hills,Lake,Manufactured Home,210000,2,2,1412,,,28.95539346,-81.94129958,A,P,,244631
L9.2554,1606 MYRTLE BEACH DR,The Village of Country Club Hills,Lake,Manufactured Home,219900,2,2,1332,,,28.95260514,-81.94414168,A,P,,246041
L9.2569,1714 MYRTLE BEACH DR,The Village of Country Club Hills,Lake,Manufactured Home,199500,2,2,1144,,,28.95508336,-81.94295195,A,P,,245922
L9.2578,1732 MYRTLE BEACH DR,The Village of Country Club Hills,Lake,Manufactured Home,172500,2,1,1096,,,28.95597423,-81.94160946,A,P,,246105
L9.2601,1617 HILTON HEAD BLVD,The Village of Country Club Hills,Lake,Manufactured Home,209000,2,2,1144,,,28.95333119,-81.94419849,A,P,wQlZKHN6n0Q,245983
L9.2609,1602 HILTON HEAD BLVD,The Village of Country Club Hills,Lake,Manufactured Home,289850,2,2,1248,,,28.95194351,-81.94506011,A,P,DRRujXDbMKY,244641
L9.2668,1607 DORAL CIR,The Village of Country Club Hills,Lake,Manufactured Home,239000,2,2,1040,,,28.9545334,-81.94116482,A,P,6XluD7nSmqk,244824
L10.2162,1536 E SCHWARTZ BLVD,The Village of Country Club Hills,Lake,El Paso,309500,2,2,1040,,,28.95308445,-81.93699444,A,P,,243991
L10.2184,1716 E SCHWARTZ BLVD,The Village of Country Club Hills,Lake,Manufactured Home,269850,2,2,1144,,,28.95656854,-81.93663664,A,P,bTyKuL5B-I0,244638
L10.2224,1630 CYPRESS PT,The Village of Country Club Hills,Lake,Cedar Key,235000,2,2,1279,,,28.95607024,-81.93948561,A,P,,245132
L10.2286,1613 BAY MEADOWS LN,The Village of Country Club Hills,Lake,St Lucia,249000,2,2,1384,,,28.95271174,-81.93878812,A,P,,245637
L10.2335,1523 HILLCREST DR,The Village of Country Club Hills,Lake,Manufactured Home,292850,2,2,1191,,,28.95091982,-81.9413702,A,P,lMatinMSfNk,244639
L10.2428,712 SAINT ANDREWS BLVD,The Village of Country Club Hills,Lake,Manufactured Home,209000,2,2,1040,,,28.95387503,-81.93841941,A,P,,246148
L11.2825,1612 PINEHURST DR,The Village of Country Club Hills,Lake,El Paso,250000,2,2,1040,"1 Car, plus Golf Car Garage",,28.95368075,-81.93577962,A,P,,245130
L13.3300,1424 W SCHWARTZ BLVD,The Village of Country Club Hills,Lake,Site Built Home,267000,2,2,1332,,,28.95066011,-81.95144772,A,P,,245560
L13.3326,1429 W SCHWARTZ BLVD,The Village of Country Club Hills,Lake,Manufactured Home,209000,2,2,1388,"1 Car, plus Golf Car Garage",,28.95104517,-81.95126032,A,P,,244939
L13.3394,1112 PARADISE DR,The Village of Country Club Hills,Lake,Manufactured Home,199900,2,2,1336,,,28.95192525,-81.95100102,A,P,,245679
L13.3438,1125 PARADISE DR,The Village of Country Club Hills,Lake,Manufactured Home,224900,2,2,1440,,,28.95230996,-81.95168027,A,P,,245858
S14.143,702 ANTONIA LN,The Village de La Vista,Sumter,Sedona III,329900,3,2,1632,2 Car Garage,,28.93179397,-81.96750589,A,P,yd23pOKVChg,245580
S14.162,717 DEL ROSARIO ST,The Village de La Vista,Sumter,Sierra,387111,3,2,1712,2 Car Garage,,28.93204076,-81.96591688,A,P,,244935
S692.20,603 ENCONTO ST,The Village de La Vista,Sumter,Senora,294900,2,1,1082,"1 Car, plus Golf Car Garage",,28.93040136,-81.95956415,A,P,,245369
L14.4719,1222 DEL TORO DR,The Village Del Mar,Lake,Ranch Home,229000,2,1,936,,,28.93118946,-81.95298111,A,P,,244837
L14.4807,724 PRADO DR,The Village Del Mar,Lake,Site Built,269000,2,2,1294,,,28.93283787,-81.95315441,A,P,,245293
L14.4865,1205 PANAMA PL,The Village Del Mar,Lake,Manufactured Home,239900,2,2,1326,,,28.93548207,-81.95297545,A,P,,245309
L14.4923,823 BOLIVAR ST,The Village Del Mar,Lake,Gulf Breeze,299000,2,2,1456,,,28.93437714,-81.9505154,A,P,UcvNZacvXxo,246038
L15.4945,1125 DEL TORO DR,The Village Del Mar,Lake,Monterey,389900,2,2,1569,,,28.93127957,-81.94826364,A,P,,245389
L16.5142,757 CORTEZ AVE,The Village El Cortez,Lake,Site Built,252900,2,2,1300,,,28.93465103,-81.94227967,A,P,,244468
L16.5143,755 CORTEZ AVE,The Village El Cortez,Lake,Palm Bay,289000,2,2,1336,,,28.93466307,-81.94210159,A,P,,245217
L16.5290,857 CORTEZ AVE,The Village El Cortez,Lake,Boca Grande,469900,3,2,1834,2 Car Garage,,28.93236982,-81.94669657,A,P,3BV3lnSgVx0,244860
S33.90,3065 GLENWOOD PL,The Village of Glenbrook,Sumter,Ashland III,379000,3,2,1490,2 Car Garage,,28.94802825,-82.00341483,A,P,,245965
S34.271,1128 OAK FOREST DR,The Village of Glenbrook,Sumter,Carolina III,339900,3,2,1392,2 Car Garage,,28.94138281,-82.0010918,A,P,,245532
S37.109,1264 NILES CT,The Village of Glenbrook,Sumter,Flagler,449500,3,2,2044,2 Car Garage,,28.94428709,-82.00803563,A,P,,245275
S39.148,3456 STERLING ST,The Village of Glenbrook,Sumter,Pinellas,449000,3,2,2230,2 Car Garage,,28.95120411,-82.01288043,A,P,,245953
S9.116,1453 SAN CLEMENTE CT,The Village Hacienda,Sumter,La Costa,419900,2,2.5,1748,2 Car Garage,Swimming Pool,28.94676501,-81.95917126,A,P,,245157
L22.6064,914 VENTURA DR,The Village La Reynalda,Lake,Vera Cruz,350000,3,2,1842,2 Car Garage,,28.9253035,-81.94346897,A,P,,245917
L23.6158,1010 SIERRA BLANCA CT,The Village La Zamora,Lake,Rancho Mirage,578500,3,2,2250,2 Car Garage,,28.91647581,-81.94675494,A,P,pM9xSJM6VAk,244435
S634.30,1619 SUMMERCHASE LOOP,The Village of Belle Aire,Sumter,Foxglove,398000,3,2,1407,"1 Car, plus Golf Car Garage",,28.95370852,-81.99834218,A,P,,246106
S611.23,1844 DALTON DR,The Village of Belle Aire,Sumter,Beauregard,364900,2,2,1254,"1 Car, plus Golf Car Garage",,28.95936663,-82.00697317,A,P,xDex6roMvSY,245829
S611.73,3111 CARROLLTON CT,The Village of Belle Aire,Sumter,Woodlawn,309000,2,2,1278,"1 Car, plus Golf Car Garage",,28.95862335,-82.00650278,A,P,,245105
S40.47,3217 HAMPTON LN,The Village of Belle Aire,Sumter,Hamilton,369000,3,2,1647,2 Car Garage,,28.95367276,-82.00911151,A,P,,244620
S41.157,3343 ROANOKE ST,The Village of Belle Aire,Sumter,Austin,299000,2,2,1268,"1 Car, plus Golf Car Garage",,28.95738306,-82.01124281,A,P,,246008
S41.243,1807 CAPTIVA CT,The Village of Belle Aire,Sumter,Austin,309000,2,2,1388,"1 Car, plus Golf Car Garage",,28.95848788,-82.01415255,A,P,,245444
L17.5542,520 SEVILLA PL,The Village Mira Mesa,Lake,Corpus Christi III,339900,3,2,1392,2 Car Garage,,28.92731022,-81.94779612,A,P,-pDQfgToGfs,245133
L18.5717,1012 DIEGO CT,The Village Mira Mesa,Lake,Santa Domingo,367000,3,2,1976,2 Car Garage,,28.92472521,-81.94685605,A,P,,245821
L19.5838,1013 DEL MAR DR,The Village Mira Mesa,Lake,Corpus Christi,259000,2,2,1464,2 Car Garage,,28.921611,-81.94703855,A,P,,245028
L19.5921,208 CHULA VISTA AVE,The Village Mira Mesa,Lake,Corpus Christi,299900,2,2,1352,2 Car Garage,,28.92074856,-81.94588902,A,P,,245364
L2.33,1028 NELL WAY,The Village of Orange Blossom Gardens,Lake,LAND,110000,0,0,0,,,28.94754982,-81.94850509,A,P,,245218
L101.1,1243 AVENIDA DE LAS CASAS,The Village of Spanish Springs,Lake,Franciello,635000,3,2.5,2088,"1 Car, plus Golf Car Garage",,28.9417436,-81.9527327,A,P,,244951
L101.7,1255 AVENIDA DE LAS CASAS,The Village of Spanish Springs,Lake,Benissa,543900,2,2,1437,"1 Car, plus Golf Car Garage",,28.94249345,-81.95233732,A,P,,246129
L101.12,1252 AVENIDA DE LAS CASAS,The Village of Spanish Springs,Lake,Franciello,575000,3,2.5,2088,"1 Car, plus Golf Car Garage",,28.94248986,-81.9527557,A,P,,245976
L101.25,1256 MIRA MAR AVE,The Village of Spanish Springs,Lake,Benissa,399000,2,2,1437,"1 Car, plus Golf Car Garage",,28.94276026,-81.95359571,A,P,,244899
L103.8,1062 AVENIDA SONOMA,The Village of Spanish Springs,Lake,Tiago,498000,3,2.5,2271,"1 Car, plus Golf Car Garage",,28.93798209,-81.95036828,A,P,BVh-vAjMw7o,243297
L103.14,1044 AVENIDA SONOMA,The Village of Spanish Springs,Lake,Renata,599400,3,2.5,2244,"1 Car, plus Golf Car Garage",,28.9376281,-81.94957078,A,P,,245225
L103.20,1024 AVENIDA SONOMA,The Village of Spanish Springs,Lake,Renata,580000,3,2.5,2244,"1 Car, plus Golf Car Garage",,28.93727212,-81.94860636,A,P,wM8z-8zPu7Y,245055
S13.52,2052 PALO ALTO AVE,The Village Palo Alto,Sumter,Cancun,620000,3,2,1687,2 Car Garage,,28.93644462,-81.97607995,A,P,,245759
S13.199,2016 SAN LEONARDO WAY,The Village Palo Alto,Sumter,Vera Cruz,449000,3,2,2060,2 Car Garage,,28.93495481,-81.97513281,A,P,,245982
S21.27,2111 GERARDO AVE,The Village Palo Alto,Sumter,Belmont,499500,3,2,2110,2 Car Garage,,28.93921648,-81.9769505,A,P,,245227
S1.121,523 SAN PEDRO DR,The Village Rio Grande,Sumter,Biscayne,259900,2,2,1140,2 Car Garage,,28.92835041,-81.95810365,A,P,,244223
S2.52,729 PALMA DR,The Village Rio Grande,Sumter,El Paso,257000,2,2,1066,,,28.93239303,-81.95552425,A,P,,245719
S2.269,824 MIRANDA WAY,The Village Rio Grande,Sumter,Cozumel III,337000,3,2,1604,2 Car Garage,,28.93527507,-81.95984331,A,P,,244747
S683.8,1339 LAJOLLA CIR,The Village Rio Grande,Sumter,Baja,339000,2,2,1155,"1 Car, plus Golf Car Garage",,28.9274281,-81.95525808,A,P,,245981
S684.59,1327 BALBOA CT,The Village Rio Grande,Sumter,Baja,339000,2,2,1094,"1 Car, plus Golf Car Garage",,28.92684929,-81.95548273,A,P,,245205
S685.36,1330 SANTA ROSA CT,The Village Rio Grande,Sumter,San Angelo,445000,2,2,1344,2 Car Garage,,28.93711142,-81.9572547,A,P,,245958
S685.46,906 SANTA ANNA LN,The Village Rio Grande,Sumter,El Cancun,359900,2,2,1230,2 Car Garage,,28.93738353,-81.95588063,A,P,,245181
S691.19,1528 MARTINEZ DR,The Village Rio Grande,Sumter,El Cancun,549000,2,2,1274,2 Car Garage,,28.9370725,-81.9605345,A,P,PT6uHX1SFiY,245720
S687.52,218 MONTOYA DR,The Village Rio Ponderosa,Sumter,Cottage,200000,1,1,788,"1 Car, plus Golf Car Garage",,28.9215307,-81.96103195,A,P,,245493
S694.21,864 TREVINO TER,The Village Rio Ranchero,Sumter,Las Brisas,424000,2,2,1098,"1 Car, plus Golf Car Garage",Swimming Pool,28.93472998,-81.96411942,A,P,,245575
S28.42,1204 CARVELLO DR,The Village Santiago,Sumter,Stetson,320000,2,2,1248,2 Car Garage,,28.94424781,-81.99851798,A,P,,246130
S28.106,1324 BALLESTEROS DR,The Village Santiago,Sumter,Austin,355000,2,2,1388,"1 Car, plus Golf Car Garage",,28.9462243,-81.99330342,A,P,,245825
S28.133,1201 CARVELLO DR,The Village Santiago,Sumter,Maverick III,310000,3,2,1241,"1 Car, plus Golf Car Garage",,28.94413353,-81.99796459,A,P,CMY6mJPzmuk,246110
S28.144,1224 BALLESTEROS DR,The Village Santiago,Sumter,Austin,297000,2,2,1148,"1 Car, plus Golf Car Garage",,28.94571737,-81.99661968,A,P,0NBpIkpUgtU,244488
S29.136,1417 FIGUEROA ST,The Village Santiago,Sumter,Charlotte,334000,3,2,1454,2 Car Garage,,28.94844715,-81.99180813,A,P,,245834
S30.9,2517 CARIBE DR,The Village Santiago,Sumter,Willow,359000,3,2,1454,2 Car Garage,,28.95185192,-81.99385409,A,P,,246003
S30.202,2712 CASTILLO DR,The Village Santiago,Sumter,Cancun,394900,3,2,1662,2 Car Garage,,28.95061963,-81.99564298,A,P,r1N7LM9W-j0,245198
S606.89,1137 SANTA CRUZ DR,The Village Santiago,Sumter,Mazatlan,319000,2,2,1214,"1 Car, plus Golf Car Garage",,28.94354636,-81.99938992,A,P,,245454
S605.49,2871 BARBOZA DR,The Village Santiago,Sumter,Cabot Cove,328500,2,2,1188,"1 Car, plus Golf Car Garage",,28.94404741,-81.99582326,A,P,,245789
S605.121,2831 BURGOS DR,The Village Santiago,Sumter,Colony,249900,2,2,1156,"1 Car, plus Golf Car Garage",,28.94296519,-81.99806319,A,P,gMw02XyUGEo,244194
S600.24,2140 ESTEVEZ DR,The Village Santo Domingo,Sumter,Cabot Cove,267000,2,2,1143,"1 Car, plus Golf Car Garage",,28.94774007,-81.97684779,A,P,,245506
S600.47,2107 ESCOBAR AVE,The Village Santo Domingo,Sumter,Cabot Cove,289000,2,2,1143,"1 Car, plus Golf Car Garage",,28.94901871,-81.97676449,A,P,,245382
S602.2,1137 ALFREDO AVE,The Village Santo Domingo,Sumter,Las Brisas,299000,2,2,1116,"1 Car, plus Golf Car Garage",,28.94283193,-81.97605018,A,P,,245562
S19.46,2003 CASTANO PL,The Village Santo Domingo,Sumter,Durango,289621,2,2,1361,2 Car Garage,,28.94561452,-81.97426062,A,P,,246188
S19.178,2029 CIPRIANO PL,The Village Santo Domingo,Sumter,Stetson III,324999,3,2,1392,2 Car Garage,,28.9468125,-81.97825663,A,P,4FnFaaTdDpg,245008
S22.202,1310 PINTO LN,The Village Santo Domingo,Sumter,Carolina III,324900,3,2,1527,2 Car Garage,,28.9463637,-81.9727574,A,P,,246071
S25.27,1402 CAMERO DR,The Village Santo Domingo,Sumter,Sausalito,324500,3,2,1904,2 Car Garage,,28.95121129,-81.96789166,A,P,,244382
S25.96,1505 ALCARAZ PL,The Village Santo Domingo,Sumter,Cozumel III,439900,3,2,1634,2 Car Garage,,28.95141385,-81.97158945,A,P,,244229
S25.97,1503 ALCARAZ PL,The Village Santo Domingo,Sumter,Sausalito,324900,3,2,1904,2 Car Garage,,28.95124895,-81.97158974,A,P,,242978
S26.51,1712 AUGUSTINE DR,The Village Santo Domingo,Sumter,Rancho Mirage,699000,3,2,2167,2 Car Garage,,28.94657168,-81.96467861,A,P,,244136
S26.231,1312 MAGANA PL,The Village Santo Domingo,Sumter,Catalina III,369800,3,2,1392,2 Car Garage,,28.94769836,-81.96550094,A,P,,246006
S26.241,1309 MAGANA PL,The Village Santo Domingo,Sumter,Saratoga,345000,2,2,1400,2 Car Garage,,28.9473447,-81.96517014,A,P,0yFSdR0gdTU,245794
L78.26,1206 BOWER LN,Spring Arbor - Family Neighborhood,Lake,Houston,349900,4,2,1868,2 Car Garage,,28.91900127,-81.9515578,A,P,,244599
L78.41,110 SPRING ARBOR LN,Spring Arbor - Family Neighborhood,Lake,Amarillo,374900,3,2,1392,2 Car Garage,Swimming Pool,28.91737797,-81.95238936,A,P,,244881
L3.118,816 ROYAL PALM AVE,The Village of Silver Lake,Lake,Custom Cottage,309900,2,2,1157,"1 Car, plus Golf Car Garage",,28.94103677,-81.94263061,A,P,,245961
L3.253,813 SILVER OAK AVE,The Village of Silver Lake,Lake,Manufactured Home,195000,2,2,960,,,28.94503465,-81.94186106,A,P,,245895
L3.288,822 BEECHWOOD AVE,The Village of Silver Lake,Lake,Pearl,325000,2,2,1340,2 Car Garage,,28.94274515,-81.9417127,A,P,,245449
L3.300,1234 DUSTIN DR,The Village of Silver Lake,Lake,Manufactured Home,179900,2,2,1152,,,28.94409418,-81.94006821,A,P,,245099
L3.330,733 ROYAL PALM AVE,The Village of Silver Lake,Lake,Manufactured Home,159900,2,2,1094,,,28.94342727,-81.94037777,A,P,,244794
L3.352,726 ROYAL PALM AVE,The Village of Silver Lake,Lake,Manufactured Home,169000,2,1,672,,,28.94349357,-81.93972881,A,P,,245807
L5.609,1025 DUSTIN DR,The Village of Silver Lake,Lake,Manufactured Home,218500,2,2,1144,,,28.94052713,-81.93714605,A,P,,245320
L5.643,710 ROSEAPPLE AVE,The Village of Silver Lake,Lake,Manufactured Home,198800,2,2,1232,,,28.94206769,-81.93927963,A,P,,245650
L6.818,1005 MATTHEW AVE,The Village of Silver Lake,Lake,Manufactured Home,194000,2,2,1146,,,28.93894792,-81.93640554,A,P,,244273
L6.820,1009 MATTHEW AVE,The Village of Silver Lake,Lake,Manufactured Home,149000,2,2,768,,,28.93927791,-81.93640481,A,P,,245740
L6.939,513 JASON DR,The Village of Silver Lake,Lake,Manufactured Home,225000,2,2,1144,,,28.94139558,-81.93117305,A,P,,245897
L6.1065,1006 PARKER PL,The Village of Silver Lake,Lake,Manufactured Home,218900,2,2,1144,,,28.94001347,-81.92995654,A,P,,244303
L10.2049,724 TURNBERRY LN,The Village of Silver Lake,Lake,Manufactured Home,199900,2,2,1220,,,28.94789233,-81.93970033,A,P,,245721
L12.3006,717 TANGERINE DR,The Village of Silver Lake,Lake,Manufactured Home,219000,2,2,1332,,,28.94756483,-81.93906898,A,P,_8yMXqM3aV8,245402
L12.3027,748 TURNBERRY LN,The Village of Silver Lake,Lake,Manufactured Home,229900,2,2,1632,,,28.94661602,-81.94053931,A,P,,244684
L12.3075,527 RAINBOW BLVD,The Village of Silver Lake,Lake,Manufactured Home,169900,2,1,936,"1 Car, plus Golf Car Garage",,28.94205686,-81.93384714,A,P,,243667
L12.3096,516 RAINBOW BLVD,The Village of Silver Lake,Lake,Cedar Key,234900,2,2,1144,,,28.94167222,-81.93156812,A,P,,245455
L12.3148,668 RAINBOW BLVD,The Village of Silver Lake,Lake,Manufactured Home,199900,2,2,1092,,,28.94528363,-81.93870962,A,P,,246167
L12.3217,1221 POMPANO LN,The Village of Silver Lake,Lake,Manufactured Home,220000,2,2,1144,,,28.94370568,-81.93103161,A,P,,245448
L12.3249,529 BONITA DR,The Village of Silver Lake,Lake,Manufactured Home,189000,2,2,1248,,,28.94268856,-81.93531539,A,P,,244637
S16.24,603 ESPANA ST,The Village Tierra del Sol,Sumter,Volusia,685000,3,3,2229,"2 Car, plus Golf Car Garage",,28.92950303,-81.97006465,A,P,y_JIriCGT6A,245296
L24.6276,111 PALERMO PL,The Village Valle Verde,Lake,Magnolia,549900,3,2,1983,2 Car Garage,,28.92192013,-81.94364993,A,P,xJ2EtdErDVs,244217
M47.22,9201 SE 177TH SIMONS LN,The Village of Springdale,Marion,Corpus Christi,349900,3,2,1265,"1 Car, plus Golf Car Garage",,28.96320282,-82.00012609,A,P,,245901
M47.87,17846 SE 92ND AMORY AVE,The Village of Springdale,Marion,Amarillo,289000,3,2,1527,2 Car Garage,,28.96200779,-82.00038119,A,P,tjGhFLBQy_E,245877
M47.90,9217 SE 179TH OSAGE PL,The Village of Springdale,Marion,Amarillo,279900,3,2,1392,2 Car Garage,,28.96151853,-82.00023669,A,P,,245686
M47.123,17998 SE 91ST POPLAR TER,The Village of Springdale,Marion,Whispering Pine,390000,3,2,1516,"2 Car, plus Golf Car Garage",,28.96025641,-82.00183049,A,P,QJ6y0nt2ao4,245311
M47.124,17996 SE 91ST POPLAR TER,The Village of Springdale,Marion,Amarillo,334000,3,2,1392,2 Car Garage,,28.96035964,-82.00200942,A,P,,245959
M47.143,17766 SE 91ST POPLAR TER,The Village of Springdale,Marion,Amarillo,309000,3,2,1392,2 Car Garage,,28.96328305,-82.00055613,A,P,TVud9XElqcQ,244570
M47.158,9208 SE 177TH SIMONS LN,The Village of Springdale,Marion,Austin,274000,2,2,1148,"1 Car, plus Golf Car Garage",,28.96283665,-81.99976395,A,P,7686ny1sKQQ,245879
M48.141,17623 SE 93RD BUTLER CT,The Village of Springdale,Marion,Austin,275000,2,2,1148,"1 Car, plus Golf Car Garage",,28.96624235,-81.9980153,A,P,QgyrcWDpuhM,245269
M214.2,9081 SE 177TH BELMONT PL,The Village of Springdale,Marion,Anna Maria,489900,3,2,1650,"1 Car, plus Golf Car Garage",Swimming Pool,28.96367148,-82.00288135,A,P,,246149
M214.20,9110 SE 179TH GRANBURY ST,The Village of Springdale,Marion,Amelia,309900,2,2,1207,"1 Car, plus Golf Car Garage",,28.96171664,-82.00261279,A,P,,244960
M214.88,17884 SE 91ST FREEDOM CT,The Village of Springdale,Marion,Marathon,349900,2,2,1185,"1 Car, plus Golf Car Garage",,28.96190973,-82.00181352,A,P,,245203
M220.38,16966 SE 94TH SUNNYBROOK CIR,The Village of Woodbury,Marion,Colony,275000,2,2,1186,"1 Car, plus Golf Car Garage",,28.97570461,-81.99768197,A,P,,245873
M220.61,16895 SE 94TH SUNNYBROOK CIR,The Village of Woodbury,Marion,Colony,264997,2,2,1160,"1 Car, plus Golf Car Garage",,28.9770216,-81.99701559,A,P,w9ILUl692nI,245385
M49.67,9239 SE 171ST COOPER LOOP,The Village of Woodbury,Marion,Cypress,392900,3,2,1993,2 Car Garage,,28.97167353,-82.0007777,A,P,,245210
M49.95,9161 SE 171ST DRAYTON PL,The Village of Woodbury,Marion,Banyan,325000,3,2,1546,2 Car Garage,,28.97266771,-82.00116475,A,P,,246002
M50.95,17135 SE 93RD TELLFIER TER,The Village of Woodbury,Marion,Banyan,337700,3,2,1662,2 Car Garage,,28.97343524,-81.99729233,A,P,IHP4pYzODKM,246101
M52.53,17088 SE 96TH CHAPELWOOD CIR,The Village of Woodbury,Marion,Amarillo,330000,3,2,1392,,,28.97562866,-81.99476368,A,P,MnPv6KD3B-Y,245997
M215.23,17275 SE 93RD DEMOSS CT,The Village of Woodbury,Marion,Colony,259900,2,2,1160,"1 Car, plus Golf Car Garage",,28.97053543,-81.9978579,A,P,,245777
M232.4,9181 SE 166TH SPRUNG LN,The Village of Woodbury,Marion,Arlington,359000,3,2,1671,"1 Car, plus Golf Car Garage",,28.97947872,-82.00153608,A,P,,244525
M232.96,9093 SE 167TH FORD ST,The Village of Woodbury,Marion,Montclair,359000,3,2,1700,"1 Car, plus Golf Car Garage",,28.97888132,-82.00294124,A,P,,245234
M44.114,17946 SE 85TH CAUSTON CT,The Village of Piedmont,Marion,Hibiscus,565000,3,2,1918,2 Car Garage,Swimming Pool,28.96099427,-82.01156192,A,P,,245739
M45.128,17953 SE 83RD RAWCLIFFE CT,The Village of Piedmont,Marion,Corpus Christi,322000,3,2,1265,"1 Car, plus Golf Car Garage",,28.96148426,-82.01406492,A,P,kjbWZKEM5w0,245758
M216.17,8495 SE 177TH TREMONT ST,The Village of Piedmont,Marion,Bonita,339900,3,2,1430,"1 Car, plus Golf Car Garage",,28.96462752,-82.01258312,A,P,,243494
M221.59,17421 SE 81ST NEWBERRY CT,The Village of Chatham,Marion,Colony,249900,2,2,1179,"1 Car, plus Golf Car Garage",,28.96878268,-82.01764894,A,P,,244988
M59.113,8050 SE 174TH LUDLOW PL,The Village of Chatham,Marion,Amarillo,309900,3,2,1392,2 Car Garage,,28.9680616,-82.01931458,A,P,,245932
M61.50,17345 SE 74TH SEABROOK CT,The Village of Chatham,Marion,Austin,279900,2,2,1208,"1 Car, plus Golf Car Garage",,28.9700577,-82.02892574,A,P,,245726
M62.176,7320 SE 173RD ARLINGTON LOOP,The Village of Chatham,Marion,Whispering Pine,359900,3,2,1532,2 Car Garage,,28.96880625,-82.03176062,A,P,,244712
M222.86,17390 SE 78TH DRAUGHTON CT,The Village of Chatham,Marion,Colony,272500,2,2,1167,,,28.96885992,-82.0231411,A,P,,245468
M222.89,17360 SE 78TH DRAUGHTON CT,The Village of Chatham,Marion,Colony,269800,2,2,1190,"1 Car, plus Golf Car Garage",,28.96918463,-82.0230738,A,P,,246163
M56.23,17182 SE 79TH MCLAWREN TER,The Village of Calumet Grove,Marion,Live Oak,679000,3,2,2027,2 Car Garage,,28.97274894,-82.01701727,A,P,UntGDnjo-Og,245549
M56.111,17131 SE 79TH MCLAWREN TER,The Village of Calumet Grove,Marion,Banyan,327711,3,2,1392,2 Car Garage,,28.97284606,-82.01869748,A,P,,245865
M65.36,16834 SE 77TH NORTHRIDGE CT,The Village of Calumet Grove,Marion,Live Oak,419900,3,2,2004,,,28.97762995,-82.02448549,A,P,,246205
M65.126,7887 SE 167TH MISTWOOD LN,The Village of Calumet Grove,Marion,Live Oak,789750,4,3,2619,"2 Car, plus Golf Car Garage",,28.97838506,-82.02173284,A,P,AslmgZ5Ebks,245263
M225.91,7572 SE 170TH BROUGHTON PL,The Village of Calumet Grove,Marion,Beauregard,289000,2,2,1358,"1 Car, plus Golf Car Garage",,28.97425178,-82.02730368,A,P,,245128
M223.20,7856 SE 171ST VICTORIA LN,The Village of Calumet Grove,Marion,Foxglove,487000,3,2,1419,"1 Car, plus Golf Car Garage",,28.97134468,-82.02247693,A,P,,245356
M224.70,16803 SE 80TH ASHGROVE TER,The Village of Calumet Grove,Marion,Anna Maria,375000,3,2,1586,"1 Car, plus Golf Car Garage",,28.97779757,-82.01899994,A,P,16803,245358
M227.30,7625 SE 171ST SUN VALLEY PL,The Village of Calumet Grove,Marion,Marathon,279711,2,2,1212,"1 Car, plus Golf Car Garage",,28.97340964,-82.02644742,A,P,,245680
M227.51,7574 SE 171ST SUN VALLEY PL,The Village of Calumet Grove,Marion,Amelia,285000,2,2,1172,"1 Car, plus Golf Car Garage",,28.97306783,-82.02712107,A,P,OUsLkbqdQ2k,245125
M55.64,17285 SE 85TH WILLOWICK CIR,The Village of Briar Meadow,Marion,Live Oak,449500,3,2,2003,2 Car Garage,,28.97072671,-82.00855332,A,P,,245097
M228.5,16615 SE 85TH LANGHAM CT,The Village of Briar Meadow,Marion,Woodlawn,349000,2,2,1204,"1 Car, plus Golf Car Garage",,28.98047489,-82.01156991,A,P,,245189
M228.6,16625 SE 85TH LANGHAM CT,The Village of Briar Meadow,Marion,Woodlawn,330000,2,2,1181,"1 Car, plus Golf Car Garage",,28.98037348,-82.01163849,A,P,,246076
M218.48,17394 SE 83RD COTTONWOOD TER,The Village of Briar Meadow,Marion,Woodlawn,275000,2,2,1157,"1 Car, plus Golf Car Garage",,28.96877375,-82.01457985,A,P,,246211
M219.11,8891 SE 168TH TAILFER ST,The Village of Briar Meadow,Marion,Amelia,319900,2,2,1202,"1 Car, plus Golf Car Garage",,28.97785276,-82.00564073,A,P,,246189
S67.29,987 CANDLER PL,The Village of Summerhill,Sumter,Austin,524500,2,2,1142,"1 Car, plus Golf Car Garage",Swimming Pool,28.93771077,-82.0111788,A,P,,244745
S67.164,3714 AUBURNDALE AVE,The Village of Summerhill,Sumter,Banyan,410000,3,2,1392,2 Car Garage,,28.93987444,-82.00821992,A,P,,246001
S67.226,3360 OAKDALE PL,The Village of Summerhill,Sumter,Amarillo,409900,3,2,1392,"2 Car, plus Golf Car Garage",,28.94075833,-82.01158069,A,P,,245606
S67.249,3313 SHELBY ST,The Village of Summerhill,Sumter,Amarillo,329900,3,2,1527,2 Car Garage,,28.94050969,-82.0100338,A,P,,245987
S68.28,1076 BLYTHE WAY,The Village of Summerhill,Sumter,Amarillo,307000,3,2,1392,2 Car Garage,,28.94021342,-82.01273952,A,P,O3Mq-U2tYOE,245313
S69.185,881 HENDERSON LN,The Village of Summerhill,Sumter,Corpus Christi,299000,3,2,1326,"1 Car, plus Golf Car Garage",,28.93549302,-82.01418611,A,P,,246095
S633.29,3502 AMELIA AVE,The Village of Summerhill,Sumter,Colony,285000,2,2,1156,"1 Car, plus Golf Car Garage",,28.93349075,-82.01496649,A,P,,245252
S633.34,3472 AMELIA AVE,The Village of Summerhill,Sumter,Colony,275000,2,2,1188,"1 Car, plus Golf Car Garage",,28.93349104,-82.01434123,A,P,,245075
S75.69,2254 HIGH POINT DR,The Village of Bonnybrook,Sumter,Banyan,379900,3,2,1639,2 Car Garage,,28.91698548,-82.00993765,A,P,,244398
S81.54,2346 CALLAWAY DR,The Village of Bonnybrook,Sumter,Camellia,835000,3,2,2135,,Swimming Pool,28.92166381,-82.01226981,A,P,dn_9Lo2oJ_8,245438
S238.53,429 CLOVERDALE CT,The Village of Bonnybrook,Sumter,Cottage,224900,1,1,872,"1 Car, plus Golf Car Garage",,28.92296812,-82.01307951,A,P,,244843
S238.57,445 CLOVERDALE CT,The Village of Bonnybrook,Sumter,Cabot Cove,288000,2,2,1188,"1 Car, plus Golf Car Garage",,28.92250948,-82.01308102,A,P,,246138
S239.1,652 DANBURY ST,The Village of Bonnybrook,Sumter,Stoneybrook,439000,3,2,1596,"1 Car, plus Golf Car Garage",,28.91764564,-82.01339305,A,P,,244404
S236.55,2446 KENMORE LN,The Village of Belvedere,Sumter,Marathon,324900,2,2,1148,"1 Car, plus Golf Car Garage",,28.92316467,-82.01505963,A,P,,245628
S77.22,512 DOWNERS GRV,The Village of Belvedere,Sumter,Oleander,459900,3,2,1647,2 Car Garage,,28.92082095,-82.01895519,A,P,,245379
S78.30,2816 PLAINRIDGE LOOP,The Village of Belvedere,Sumter,Amarillo,284900,3,2,1392,2 Car Garage,,28.92370428,-82.02202096,A,P,,244716
S80.137,654 FAYETTE CT,The Village of Belvedere,Sumter,Wisteria,359000,3,2,1472,2 Car Garage,,28.91745745,-82.02069855,A,P,,244330
S80.185,608 ABBEVILLE LOOP,The Village of Belvedere,Sumter,Wisteria,399000,3,2,1472,2 Car Garage,,28.91730843,-82.02485939,A,P,,245674
S645.46,2840 LEICESTER TER,The Village of Belvedere,Sumter,Beauregard,345000,2,2,1131,"1 Car, plus Golf Car Garage",,28.92182623,-82.02570144,A,P,,245837
S72.3,1802 HARTFORD PATH,The Village of Bridgeport at Lake Miona,Sumter,St. Augustine,1469000,4,3,4987,2 Car Garage,,28.909369,-81.99774679,A,P,IFU-OpnHsO0,245051
S70.45,395 LAUREL LN,The Village of Winifred,Sumter,Royal Palm,469900,3,2,1875,2 Car Garage,,28.9238147,-82.00165949,A,P,,244189
S70.195,1763 MILLWOOD WAY,The Village of Winifred,Sumter,Azalea,435000,3,2,1539,2 Car Garage,,28.9203488,-81.99608506,A,P,,245268
S70.328,607 HARTLEY PL,The Village of Winifred,Sumter,Wisteria,360000,3,2,1472,2 Car Garage,,28.9191671,-81.99780841,A,P,,245229
S70.372,1879 CARYLE LN,The Village of Winifred,Sumter,Jasmine,429000,3,2,1564,2 Car Garage,,28.92037113,-81.99923385,A,P,U7wJEq1Kn7I,245362
S70.422,1940 LANCASTER LN,The Village of Winifred,Sumter,Jasmine,445000,3,2,1456,2 Car Garage,,28.92278077,-82.00088646,A,P,,245645
S71.71,1711 BENZINGER CT,The Village of Winifred,Sumter,Royal Palm,395000,3,2.5,1952,2 Car Garage,,28.91295326,-81.99480088,A,P,,245776
S71.73,1695 BENZINGER CT,The Village of Winifred,Sumter,Gardenia,440000,3,2,1955,2 Car Garage,,28.9130285,-81.99441067,A,P,OQS-K3SXe9Q,245558
S82.83,2131 ELLISON PL,The Village of Ashland,Sumter,Oleander,399900,3,2,1695,2 Car Garage,,28.91557271,-82.00609144,A,P,,244815
S648.25,2113 BURROUGHS RD,The Village of Ashland,Sumter,Biscayne,315000,2,2,1137,"1 Car, plus Golf Car Garage",,28.91244062,-82.00541701,A,P,E1VjQdb2h1g,246048
S648.31,2104 JASPER WAY,The Village of Ashland,Sumter,Amelia,299900,2,2,1129,"1 Car, plus Golf Car Garage",,28.91268232,-82.00530762,A,P,,244656
S86.18,2433 WILSON WAY,The Village of Lynnhaven,Sumter,Amarillo,352000,3,2,1392,2 Car Garage,,28.91622989,-82.01453323,A,P,,246027
S87.151,929 LIVINGSTON LOOP,The Village of Lynnhaven,Sumter,Austin,318000,2,2,1142,,,28.90934215,-82.01411096,A,P,,245386
S651.84,2674 COLLINGTON DR,The Village of Lynnhaven,Sumter,Colony,279000,2,2,1156,"1 Car, plus Golf Car Garage",,28.91409516,-82.02124713,A,P,,244496
S92.19,1708 BLYTHEWOOD LOOP,The Village of Sunset Pointe,Sumter,Oleander,395000,3,2,1675,2 Car Garage,,28.89586272,-81.99461505,A,P,,245836
S92.131,1543 OLAR CT,The Village of Sunset Pointe,Sumter,Juniper,498950,3,2,2218,2 Car Garage,,28.90000827,-81.99001997,A,P,,246150
S92.191,1644 ARIAL PL,The Village of Sunset Pointe,Sumter,Gardenia,565000,4,3,2407,"2 Car, plus Golf Car Garage",,28.89821847,-81.9928099,A,P,,243784
S93.36,1637 LAKEWOOD DR,The Village of Sunset Pointe,Sumter,Austin,319000,2,2,1142,"1 Car, plus Golf Car Garage",,28.89653349,-81.99262223,A,P,,245880
S95.3,1951 WILLIAMSBURG AVE,The Village of Poinciana,Sumter,Grand Ficus,479000,2,2,1845,2 Car Garage,,28.88605364,-81.99115856,A,P,,245912
S95.80,1567 GOLDEN RIDGE DR,The Village of Poinciana,Sumter,Gardenia,675000,3,2,1913,"2 Car, plus Golf Car Garage",,28.88933373,-81.99086991,A,P,,245139
S100.23,1970 HAGOOD LOOP,The Village of Poinciana,Sumter,Carlton,429700,3,2,1998,2 Car Garage,,28.88700037,-81.99632964,A,P,,245224
S100.51,1826 KYRLE TER,The Village of Poinciana,Sumter,Gardenia,865000,3,2,2094,2 Car Garage,Swimming Pool,28.88891014,-81.99615758,A,P,usBFr4br2_o,245262
S100.104,1827 KYRLE TER,The Village of Poinciana,Sumter,Camellia,456000,3,2,1887,"2 Car, plus Golf Car Garage",,28.88886119,-81.99569757,A,P,,243940
S96.109,1318 CAMEROON CT,The Village of Liberty Park,Sumter,Laredo,335000,2,2,1100,,,28.88580979,-81.98392772,A,P,,246126
S653.13,1960 MONTROSE CT,The Village of Liberty Park,Sumter,Cabot Cove,280000,2,2,1188,"1 Car, plus Golf Car Garage",,28.88579928,-81.98131397,A,P,,245653
S653.73,1946 STAFFORD AVE,The Village of Liberty Park,Sumter,Cabot Cove,318800,2,2,1188,"1 Car, plus Golf Car Garage",,28.88612069,-81.98055701,A,P,,246120
S661.22,1408 CHESTERFIELD LN,The Village of Liberty Park,Sumter,Anna Maria,459000,3,2,1612,,,28.8828141,-81.98633318,A,P,,246108
S662.36,2308 BLADEWOOD CT,The Village of Liberty Park,Sumter,Cabot Cove,298000,2,2,1188,"1 Car, plus Golf Car Garage",,28.87738248,-81.99292801,A,P,,244301
S106.11,1223 HARLEYVILLE LOOP,The Village of Virginia Trace,Sumter,Gardenia,569000,4,2,2531,2 Car Garage,,28.9032503,-81.97549376,A,P,8w3GEBoIGXo,245831
S107.123,1087 NICHOLS TER,The Village of Virginia Trace,Sumter,Carlton,499000,3,2,1902,2 Car Garage,,28.89807116,-81.97738653,A,P,,245859
S108.43,909 CHAPPELLS DR,The Village of Virginia Trace,Sumter,Gardenia,438000,3,2,1927,2 Car Garage,,28.90360542,-81.97261703,A,P,,244557
S108.138,854 HAYNESVILLE WAY,The Village of Virginia Trace,Sumter,Lantana,499900,3,2,2171,2 Car Garage,,28.90195343,-81.97095004,A,P,,245949
S109.76,838 FURMAN LOOP,The Village of Virginia Trace,Sumter,Bougainvillea,339000,3,2,1551,2 Car Garage,,28.90124373,-81.97068582,A,P,,244473
S109.107,1357 DUNCAN DR,The Village of Virginia Trace,Sumter,Lantana,799000,3,2,2480,2 Car Garage,,28.8993079,-81.97068239,A,P,m4ryDJbiUsc,244300
S665.53,1129 EASLEY WAY,The Village of Virginia Trace,Sumter,Woodlawn,349900,2,2,1258,"1 Car, plus Golf Car Garage",,28.90595627,-81.96904087,A,P,,244346
S665.69,816 CHAPPELLS DR,The Village of Virginia Trace,Sumter,Foxglove,394000,3,2,1407,"1 Car, plus Golf Car Garage",,28.90458299,-81.9700608,A,P,,245530
S110.13,674 MAYBANK LOOP,The Village of Caroline,Sumter,Lantana,865000,3,2,2000,2 Car Garage,,28.90208473,-81.9656413,A,P,v7Z_vxNZACk,245802
S112.6,133 OLANTA DR,The Village of Caroline,Sumter,Amarillo,345000,3,2,1392,2 Car Garage,,28.90160093,-81.95515658,A,P,,245839
S114.36,1434 FORT LAWN LOOP,The Village of Caroline,Sumter,Amarillo,419900,3,2,1572,"2 Car, plus Golf Car Garage",,28.89869831,-81.95452748,A,P,lnmApg4Dv8w,245860
S114.96,291 SCOTIA ST,The Village of Caroline,Sumter,Austin,349500,2,2,1382,"1 Car, plus Golf Car Garage",,28.89721015,-81.95471719,A,P,,246128
S125.1,1088 WOODRUFF ST,The Village of Caroline,Sumter,Oleander,475000,3,2,1737,2 Car Garage,,28.90696242,-81.96718785,A,P,,245797
S668.53,1190 MCBEE AVE,The Village of Caroline,Sumter,Marathon,409900,2,2,1488,"1 Car, plus Golf Car Garage",,28.90448089,-81.96757288,A,P,,245910
S115.74,552 SOCIETY HILL CIR,The Village of Mallory Square,Sumter,Gardenia,549000,3,2,2046,2 Car Garage,,28.89960765,-81.96194931,A,P,,246092
S115.80,508 SOCIETY HILL CIR,The Village of Mallory Square,Sumter,Somerset,419000,3,2,1983,2 Car Garage,,28.89976375,-81.96083394,A,P,,245089
S115.173,1500 GIFFORD CT,The Village of Mallory Square,Sumter,Camellia,429900,3,2,1851,"2 Car, plus Golf Car Garage",,28.89683991,-81.96487365,A,P,lP030RW7wZI,245492
S117.44,282 BISHOPVILLE LOOP,The Village of Mallory Square,Sumter,Gardenia,599800,3,2,1966,"2 Car, plus Golf Car Garage",,28.89285473,-81.95763237,A,P,GyQds1AoFxg,245147
S117.62,436 HENGAN PL,The Village of Mallory Square,Sumter,Oleander,479000,3,2,1838,"2 Car, plus Golf Car Garage",,28.89321233,-81.95862332,A,P,XgBCa81FF1E,245817
S117.86,437 HENGAN PL,The Village of Mallory Square,Sumter,Bridgeport,649500,3,2.5,2075,"2 Car, plus Golf Car Garage",,28.89338446,-81.9590414,A,P,LM2YdD2RPAs,245214
S126.279,503 LITTLE RIVER PATH,The Village of Mallory Square,Sumter,Gardenia,539711,3,2,1887,"2 Car, plus Golf Car Garage",,28.89058419,-81.96139558,A,P,,245256
S669.17,308 VARNVILLE WAY,The Village of Mallory Square,Sumter,Colony,299000,2,2,1156,"1 Car, plus Golf Car Garage",,28.89151125,-81.95524156,A,P,,245391
S669.49,297 EMMALEE PL,The Village of Mallory Square,Sumter,Colony,309900,2,2,1156,"1 Car, plus Golf Car Garage",,28.89305273,-81.95490086,A,P,,245684
S669.83,309 ROWESVILLE LN,The Village of Mallory Square,Sumter,Colony,319900,2,2,1156,"1 Car, plus Golf Car Garage",,28.89244357,-81.95524545,A,P,CGg2AfiTBKg,245915
S118.108,804 ASTOR WAY,The Village of Sabal Chase,Sumter,Gardenia,449000,3,2,1927,2 Car Garage,,28.89041578,-81.97016019,A,P,,246046
S119.36,1110 GOLDEN GROVE DR,The Village of Sabal Chase,Sumter,Amarillo,324900,3,2,1392,2 Car Garage,,28.8924423,-81.97851849,A,P,,245535
S120.70,1122 MAGRATH WAY,The Village of Sabal Chase,Sumter,Camden,415900,3,2,1621,2 Car Garage,,28.89001811,-81.97824641,A,P,,244500
S121.30,863 SHELLBARK WAY,The Village of Sabal Chase,Sumter,Lantana,549900,3,2,2074,2 Car Garage,,28.88672739,-81.96984653,A,P,mbY9RLcjrxE,244771
S121.90,988 TALAPIA LOOP,The Village of Sabal Chase,Sumter,Camellia,479900,3,2,1927,"2 Car, plus Golf Car Garage",,28.88841732,-81.97405967,A,P,,245011
S677.52,913 TANGLEWOOD PL,The Village of Sabal Chase,Sumter,Amelia,349500,2,2,1182,"1 Car, plus Golf Car Garage",,28.88948597,-81.97262081,A,P,o5SWXe5g96A,244096
S701.74,1002 RIDGEVILLE RD,The Village of Sabal Chase,Sumter,Colony,301900,2,2,1156,"1 Car, plus Golf Car Garage",,28.89153011,-81.97511646,A,P,bhVpy_2tLwY,245488
S122.106,2102 BLACKVILLE DR,The Village of Largo,Sumter,Gardenia,495900,3,2,1927,"2 Car, plus Golf Car Garage",,28.88174135,-81.96911396,A,P,,244730
S122.139,2212 BLACKVILLE DR,The Village of Largo,Sumter,Gardenia,775000,3,2,1926,2 Car Garage,,28.8833409,-81.97192114,A,P,6OQh3wdASt4,245278
S122.206,797 STARTEX ST,The Village of Largo,Sumter,Gardenia,429900,3,2,2672,2 Car Garage,,28.88288978,-81.96944789,A,P,,246209
S122.246,845 YEMASSEE LOOP,The Village of Largo,Sumter,Whispering Pine,389669,3,2,1488,2 Car Garage,,28.88230384,-81.96978966,A,P,sVwO4zvkZb4,245046
S101.143,424 BOWMAN TER,The Village of Tall Trees,Sumter,Lantana,549999,3,2,2000,"2 Car, plus Golf Car Garage",,28.92305615,-82.00697786,A,P,h2aj7KEB7ao,245974
S101.145,436 BOWMAN TER,The Village of Tall Trees,Sumter,Jasmine,439000,3,2,1995,"2 Car, plus Golf Car Garage",,28.92263554,-82.00715714,A,P,,246122
S104.1,2272 WELCOME WAY,The Village of Tall Trees,Sumter,Oleander,475000,3,2,1647,"2 Car, plus Golf Car Garage",,28.92363962,-82.01038764,A,P,dmPdwmd2B6Y,246158
S104.44,2389 FIVE FORKS TRL,The Village of Tall Trees,Sumter,Corpus Christi,364000,3,2,1240,"1 Car, plus Golf Car Garage",,28.925255,-82.01410158,A,P,,246199
S105.25,1030 RUSSELL LOOP,The Village of Bridgeport at Lake Sumter,Sumter,St. Charles,1090000,3,3,2539,"2 Car, plus Golf Car Garage",,28.91381159,-81.98112644,A,P,,245484
S105.51,1275 RUSSELL LOOP,The Village of Bridgeport at Lake Sumter,Sumter,Williamsburg,924900,3,2,2489,"2 Car, plus Golf Car Garage",Swimming Pool,28.91176587,-81.98269954,A,P,,244874
S105.185,1338 ALLSTON CT,The Village of Bridgeport at Lake Sumter,Sumter,Chatham,1569900,3,2,3003,"2 Car, plus Golf Car Garage",Swimming Pool,28.91220676,-81.98455284,A,P,,244905
S105.186,1326 ALLSTON CT,The Village of Bridgeport at Lake Sumter,Sumter,Williamsburg,929900,3,2,2425,"2 Car, plus Golf Car Garage",,28.91216186,-81.9841348,A,P,ClgS3T4v02E,245282
S127.153,499 CORBETT DR,The Village of Amelia,Sumter,Austin,321800,2,2,1142,"1 Car, plus Golf Car Garage",,28.88783764,-81.95895328,A,P,,245715
S127.294,289 INGRAM ST,The Village of Amelia,Sumter,Amarillo,354900,3,2,1392,"2 Car, plus Golf Car Garage",,28.89059998,-81.95471678,A,P,,245631
S129.132,2151 JEM PATH,The Village of Amelia,Sumter,Begonia,524000,3,2,1895,"2 Car, plus Golf Car Garage",,28.88261106,-81.96171765,A,P,,245045
S129.170,2123 ONSLOW CT,The Village of Amelia,Sumter,Camellia,443500,3,2,1887,2 Car Garage,,28.88193688,-81.96251334,A,P,HA7VjZs1axI,245882
S129.184,588 BEAULIEU LOOP,The Village of Amelia,Sumter,Gardenia,549900,3,2,1966,2 Car Garage,,28.88121622,-81.96345648,A,P,,246118
S130.120,454 KEYHOLE ST,The Village of Amelia,Sumter,Amarillo,378000,3,2,1392,"2 Car, plus Golf Car Garage",,28.88352578,-81.95963634,A,P,IqewlYP1Od8,244264
S131.179,2188 BALSA CT,The Village of Amelia,Sumter,Dream Catcher,329000,2,2,1265,2 Car Garage,,28.88052614,-81.95477744,A,P,frhPydnjK1c,244908
S145.70,1489 MURRELLS INLET LOOP,The Village of Duval,Sumter,Laredo,315900,2,2,1100,"1 Car, plus Golf Car Garage",,28.87640362,-81.98691264,A,P,,244907
S145.129,1398 WALTERBORO LN,The Village of Duval,Sumter,Austin,335000,2,2,1146,,,28.87666091,-81.98605411,A,P,,245704
S145.139,1488 MURRELLS INLET LOOP,The Village of Duval,Sumter,Corpus Christi,315000,3,2,1240,"1 Car, plus Golf Car Garage",,28.87672272,-81.98666434,A,P,,244761
S146.17,1593 HOLLYBERRY PL,The Village of Duval,Sumter,Amarillo,479000,3,2,1668,"2 Car, plus Golf Car Garage",,28.87470312,-81.99063721,A,P,,245152
S146.199,1425 HOLLYBERRY PL,The Village of Duval,Sumter,Amarillo,379500,3,2,1572,2 Car Garage,,28.87182171,-81.98650289,A,P,,244695
S146.237,1473 BLUEBERRY WAY,The Village of Duval,Sumter,Corpus Christi,324000,3,2,1270,"1 Car, plus Golf Car Garage",,28.87153101,-81.98839606,A,P,,245603
S147.159,2768 PERSIMMON LOOP,The Village of Duval,Sumter,Whispering Pine,429621,3,2,1644,2 Car Garage,,28.86814567,-81.98911527,A,P,OZ1Ybp9gQEE,244522
S142.187,1250 JAMES ISLAND ST,The Village of Duval,Sumter,Gardenia,575000,3,2,1927,2 Car Garage,,28.8718149,-81.98189602,A,P,,245752
S706.43,1427 FAIRWAY ST,The Village of Duval,Sumter,Colony,299000,2,2,1156,"1 Car, plus Golf Car Garage",,28.86774105,-81.98684759,A,P,,246100
S705.37,1564 BOTTLEBRUSH ST,The Village of Duval,Sumter,Colony,269000,2,2,1156,"1 Car, plus Golf Car Garage",,28.87103777,-81.99105315,A,P,,244463
S705.44,2603 BIRCH AVE,The Village of Duval,Sumter,Colony,314900,2,2,1156,"1 Car, plus Golf Car Garage",,28.87151783,-81.99066609,A,P,,245861
S707.17,1401 CHATEAU WAY,The Village of Duval,Sumter,Woodlawn,324900,2,2,1123,"1 Car, plus Golf Car Garage",,28.86713606,-81.98581774,A,P,,245984
S136.28,2268 SUTTON TER,The Village of Bonita,Sumter,Jasmine,409850,3,2,1517,2 Car Garage,,28.8782223,-81.97155981,A,P,wY8dlXzc65g,245744
S141.2,2517 BLACKSBURG WAY,The Village of Bonita,Sumter,Gardenia,449000,3,2,2139,"2 Car, plus Golf Car Garage",,28.87227259,-81.97851799,A,P,,244566
S141.179,1312 WITHERSPOON PATH,The Village of Bonita,Sumter,Wisteria,399900,3,2,1632,2 Car Garage,,28.87765588,-81.98368487,A,P,,245928
S141.236,2418 COLUMBIA WAY,The Village of Bonita,Sumter,Jasmine,486977,3,2,1541,"2 Car, plus Golf Car Garage",,28.8751443,-81.98172872,A,P,,245421
S717.49,1098 BURNETTOWN PL,The Village of Bonita,Sumter,Foxglove,389900,3,2,1398,"1 Car, plus Golf Car Garage",,28.87745821,-81.97753448,A,P,,244805
S715.4,273 HAMLIN PL,The Village of Hadley,Sumter,Stoneybrook,449747,3,2,1612,"1 Car, plus Golf Car Garage",,28.87108454,-81.95400007,A,P,dpOkXciW3mk,244915
S137.133,2436 MONROE TER,The Village of Hemingway,Sumter,Lantana,583000,3,2,2000,2 Car Garage,,28.87421787,-81.97042774,A,P,UZy79UGWmt4,245867
S143.62,2643 BECKETT RUN,The Village of Hemingway,Sumter,Iris,499900,3,2,1939,"2 Car, plus Golf Car Garage",,28.86888902,-81.97946611,A,P,,245452
S144.44,2634 RADLEY LN,The Village of Hemingway,Sumter,Juniper,550000,3,2,2000,2 Car Garage,,28.86957011,-81.97532912,A,P,,243807
S144.71,1081 ALCOVE LOOP,The Village of Hemingway,Sumter,Lily,489999,3,2,1939,2 Car Garage,,28.8694411,-81.9780231,A,P,_w2O4ugz3zY,243868
S709.13,2504 KNOX TER,The Village of Hemingway,Sumter,Colony,269500,2,2,1156,"1 Car, plus Golf Car Garage",,28.87267096,-81.97649865,A,P,,244702
S709.22,1021 JACE PL,The Village of Hemingway,Sumter,Colony,315000,2,2,1156,"1 Car, plus Golf Car Garage",,28.87295223,-81.97560449,A,P,,244945
S709.53,2539 MARIEL WAY,The Village of Hemingway,Sumter,Colony,319500,2,2,1156,"1 Car, plus Golf Car Garage",,28.87177745,-81.97521237,A,P,,246000
S711.41,899 BRAEMAR PL,The Village of Hemingway,Sumter,Cumberland,369000,3,2,1685,"1 Car, plus Golf Car Garage",,28.87427472,-81.97208438,A,P,ZH3CSMgBUMg,245571
S708.52,1097 INDALE PL,The Village of Hemingway,Sumter,Beauregard,349900,2,2,1196,"1 Car, plus Golf Car Garage",,28.87072396,-81.97725367,A,P,,244625
S171.114,1108 MIONA SHORES DR,The Village of Bridgeport at Miona Shores,Sumter,Sanibel,1149000,3,2,3159,3 Car Garage,,28.90630122,-82.00999403,A,P,lOvyG-ePx74,245318
S148.4,1836 DUTCHESS LOOP,The Village of St. Charles,Sumter,Wisteria,369800,3,2,1560,2 Car Garage,,28.87779105,-81.99408505,A,P,keg8lqmYin8,244961
S148.93,2301 MIDNIGHT PASS CT,The Village of St. Charles,Sumter,Lily,599000,3,2,1939,2 Car Garage,,28.87761167,-81.99448808,A,P,,246181
S823.5,2227 HANOVER TER,The Village of St. Charles,Sumter,Colony,269000,2,2,1156,"1 Car, plus Golf Car Garage",,28.87944702,-81.99616124,A,P,,245435
S815.82,1821 HALLANDALE LN,The Village of St. Charles,Sumter,Colony,293000,2,2,1156,,,28.88023063,-81.99759836,A,P,,245939
S166.11,1811 DELWOOD WAY,The Village of Pennecamp,Sumter,Dream Catcher,309900,2,2,1175,2 Car Garage,,28.88997973,-82.00146629,A,P,,245632
S167.14,2076 TRIGGERFISH RUN,The Village of Pennecamp,Sumter,Bridgeport,959000,3,2.5,2027,"2 Car, plus Golf Car Garage",,28.88957745,-82.00476922,A,P,,245723
S168.69,2204 BAYPOINT WAY,The Village of Pennecamp,Sumter,Grandview,1625000,4,2.5,3502,"2 Car, plus Golf Car Garage",,28.89656754,-82.0083538,A,P,5CeV7C1pp3M,245696
S820.18,2159 GREY DOVE LN,The Village of Pennecamp,Sumter,The Birdie,484900,3,2,1685,"1 Car, plus Golf Car Garage",,28.89171354,-82.00700643,A,P,,245765
S821.56,1727 GALAHAD TER,The Village of Pennecamp,Sumter,Cabot Cove,268900,2,2,1188,"1 Car, plus Golf Car Garage",,28.89208883,-82.008432,A,P,jeuIV1ri0Kc,245187
S821.92,1667 ABASCO CT,The Village of Pennecamp,Sumter,Colony,289900,2,2,1156,"1 Car, plus Golf Car Garage",,28.89294773,-82.00934048,A,P,,245131
S804.11,1933 AMBERJACK TER,The Village of Pennecamp,Sumter,Grantham,417900,3,2,1685,"1 Car, plus Golf Car Garage",,28.88644056,-82.00528748,A,P,,245751
S804.53,1934 AMBERJACK TER,The Village of Pennecamp,Sumter,Beauregard,369000,2,2,1196,"1 Car, plus Golf Car Garage",,28.88645654,-82.00569678,A,P,,246136
S825.62,2101 SOUTHERN STAR WAY,The Village of Tamarind Grove,Sumter,Foxglove,389900,3,2,1398,"1 Car, plus Golf Car Garage",,28.87866625,-82.00530122,A,P,,244323
S159.15,2510 TAMARIND GROVE RUN,The Village of Tamarind Grove,Sumter,Lily,499750,3,2,1930,2 Car Garage,,28.87294322,-82.01683311,A,P,R8LecCQJPFA,245940
S805.11,2577 CARRINGTON CT,The Village of Buttonwood,Sumter,Colony,293000,2,2,1156,,,28.89013546,-82.01858505,A,P,,245978
S805.33,1803 APALACHEE AVE,The Village of Buttonwood,Sumter,Colony,292000,2,2,1156,"1 Car, plus Golf Car Garage",,28.88950168,-82.01712637,A,P,,245277
S805.39,1777 APALACHEE AVE,The Village of Buttonwood,Sumter,Colony,288000,2,2,1156,"1 Car, plus Golf Car Garage",,28.89016173,-82.01712565,A,P,,244371
S807.1,2467 BAYPORT PL,The Village of Buttonwood,Sumter,Colony,329000,2,2,1156,"1 Car, plus Golf Car Garage",,28.88833957,-82.01541458,A,P,,244056
S157.138,2163 JORDAN ST,The Village of Buttonwood,Sumter,Whispering Pine,412675,3,2,1687,2 Car Garage,,28.88301012,-82.00706687,A,P,,246141
S163.40,2155 FRINGE TREE TRL,The Village of Buttonwood,Sumter,Whispering Pine,427900,3,2,1751,2 Car Garage,,28.88405561,-82.00723788,A,P,jeiDdNIRlK0,243635
S170.195,1945 DALECROFT TRL,The Village of Buttonwood,Sumter,Lily,769900,3,2,1930,"2 Car, plus Golf Car Garage",,28.88531318,-82.01660187,A,P,,245015
S170.205,1979 DALECROFT TRL,The Village of Buttonwood,Sumter,Tuckett Inn,379000,3,2,1483,2 Car Garage,,28.88381484,-82.01731136,A,P,RjGp2b1tgow,245617
S170.213,2005 DALECROFT TRL,The Village of Buttonwood,Sumter,Whispering Pine,469000,3,2,1735,"2 Car, plus Golf Car Garage",,28.88387201,-82.01893399,A,P,,245467
S170.270,1963 HARDING PATH,The Village of Buttonwood,Sumter,At Ease,429900,3,2,1623,"2 Car, plus Golf Car Garage",,28.88593212,-82.01765817,A,P,,245654
S170.281,1966 DALECROFT TRL,The Village of Buttonwood,Sumter,At Ease,459900,3,2,1488,"2 Car, plus Golf Car Garage",,28.88423619,-82.01706249,A,P,,245864
S828.46,1159 CREEKSIDE DR,The Village of Bridgeport-Creekside Landing,Sumter,Bonita,649900,3,2,1623,,,28.90545012,-81.97693251,A,P,,245271
S828.122,1128 TALL PINE LN,The Village of Bridgeport-Creekside Landing,Sumter,Cumberland,549000,3,2,1685,"1 Car, plus Golf Car Garage",,28.90538323,-81.97855087,A,P,daKeGhozZZ0,245770
S828.144,1128 OLD DOMINION RD,The Village of Bridgeport-Creekside Landing,Sumter,Bonita,464000,3,2,1397,"1 Car, plus Golf Car Garage",,28.90607607,-81.97853187,A,P,,244802
S814.2,1904 FAIRWINDS PL,The Village of St. James,Sumter,Charlotte,449000,3,2,1416,"1 Car, plus Golf Car Garage",,28.87411199,-81.9998357,A,P,,246011
S814.43,1873 LOADSTAR AVE,The Village of St. James,Sumter,Arlington,430000,3,2,1656,"1 Car, plus Golf Car Garage",,28.87519159,-81.9995953,A,P,,245999
S151.163,1833 YANKEE CLIPPER RUN,The Village of St. James,Sumter,Begonia,759900,3,2,1860,"2 Car, plus Golf Car Garage",Swimming Pool,28.87643937,-81.99984226,A,P,ifJl8qsTEg8,245838
S153.21,2549 ASHVILLE AVE,The Village of St. James,Sumter,Lily,824900,3,2,1930,"2 Car, plus Golf Car Garage",,28.87207436,-82.00563073,A,P,,245934
S153.48,2572 EDENVILLE PATH,The Village of St. James,Sumter,Sandcastle,309900,3,2,1216,"1 Car, plus Golf Car Garage",,28.87043439,-82.0032515,A,P,,245711
S813.11,2011 FAIRVIEW LN,The Village of St. James,Sumter,Colony,299900,2,2,1156,"1 Car, plus Golf Car Garage",,28.87198581,-82.00295005,A,P,,245626
S824.39,2003 KELMSCOTT ST,The Village of St. James,Sumter,Colony,297500,2,2,1156,"1 Car, plus Golf Car Garage",,28.87018646,-82.00276449,A,P,,245921
S750.96,5121 NE 122ND LN,Bison Valley - Family Neighborhood,Sumter,Whispering Pine,399950,4,2,1924,2 Car Garage,,28.93399657,-82.01853206,A,P,H5nyv7ppDz8,245061
S174.33,632 WAKE FOREST LN,The Village of Bridgeport at Laurel Valley,Sumter,Avalon,999000,4,3,2768,3 + Car Garage,,28.91775887,-81.98853752,A,P,T-xe4yHkzV4,245780
S175.9,715 BRADFORD LOOP,The Village of Sanibel,Sumter,Ponderosa Pine,478000,3,2,1983,,,28.86234981,-81.96714741,A,P,,245742
S176.6,2994 ADRIENNE WAY,The Village of Sanibel,Sumter,Begonia,759000,3,2,1890,"2 Car, plus Golf Car Garage",Swimming Pool,28.86015572,-81.97064645,A,P,pULy8LBKkco,244581
S177.33,3074 TWISTED OAK WAY,The Village of Sanibel,Sumter,Zinnia,849700,3,3,2053,"2 Car, plus Golf Car Garage",,28.85911724,-81.97516217,A,P,,246077
S177.76,2885 SILK TREE TER,The Village of Sanibel,Sumter,Bridgeport,1099000,3,2.5,2207,"2 Car, plus Golf Car Garage",Swimming Pool,28.86321849,-81.97412909,A,P,,245345
S178.119,655 GLENDALE LN,The Village of Sanibel,Sumter,Aspen,519500,3,2,1938,2 Car Garage,,28.85701866,-81.96531764,A,P,VcO6z5q8lrQ,246078
S949.35,2974 ISLAMORADA CT,The Village of Sanibel,Sumter,Arlington,539500,3,2,1654,"1 Car, plus Golf Car Garage",,28.86115278,-81.96860482,A,P,MtK_i6I9vCc,244585
S950.10,3142 AMBERLY CT,The Village of Sanibel,Sumter,Arlington,435000,3,2,1654,"1 Car, plus Golf Car Garage",,28.85709811,-81.96361101,A,P,,245371
S950.40,559 JESSMYTH PL,The Village of Sanibel,Sumter,Fairmont,415000,3,2,1602,"1 Car, plus Golf Car Garage",,28.85803162,-81.96255674,A,P,,245001
S948.4,3116 BLYTHILL LN,The Village of Sanibel,Sumter,Callaway,330000,2,2,1206,"1 Car, plus Golf Car Garage",,28.8582676,-81.97119539,A,P,,245428
S948.30,3197 JEMIMA AVE,The Village of Sanibel,Sumter,Monticello,435000,3,2,1654,,,28.855906,-81.97109074,A,P,GgbcAuZ6Og0,244909
S802.80,1021 MALLARD LN,The Village of Bridgeport - Edgewater,Sumter,Glen Arbor,475500,3,2,1433,"1 Car, plus Golf Car Garage",,28.90855611,-81.9814755,A,P,,245144
S205.185,1304 ZOMBAR PL,The Village of Fernandina,Sumter,Iris,524900,3,2,1956,"2 Car, plus Golf Car Garage",,28.85198447,-81.98351927,A,P,YXuF6YaYrqU,244549
S206.108,1149 FIELDBROOK WAY,The Village of Fernandina,Sumter,Cedar,424900,3,2,1863,2 Car Garage,,28.85682688,-81.97948661,A,P,,245630
S206.136,3238 ABANA PATH,The Village of Fernandina,Sumter,Sunflower,469000,3,2,1866,"2 Car, plus Golf Car Garage",,28.85438602,-81.97810133,A,P,,245644
S208.43,1149 MOCKINGBIRD LN,The Village of Fernandina,Sumter,Lily,949000,3,2,1930,"2 Car, plus Golf Car Garage",Swimming Pool,28.85783413,-81.97900414,A,P,,245212
S208.44,1145 MOCKINGBIRD LN,The Village of Fernandina,Sumter,Iris,825000,3,2,1956,"2 Car, plus Golf Car Garage",,28.85762,-81.97887371,A,P,,245971
S215.19,3362 BRASSIE TER,The Village of Fernandina,Sumter,Lantana,829000,3,2,2013,2 Car Garage,Swimming Pool,28.85149655,-81.98524437,A,P,,245964
S215.99,3458 RIDGEWOOD PATH,The Village of Fernandina,Sumter,Hammock,359000,3,2,1611,2 Car Garage,,28.84865504,-81.98848023,A,P,,245104
S215.111,3404 RIDGEWOOD PATH,The Village of Fernandina,Sumter,Whispering Pine,419000,3,2,1679,2 Car Garage,,28.85004509,-81.99019225,A,P,,246087
S215.164,3451 RIDGEWOOD PATH,The Village of Fernandina,Sumter,Sandpiper,344000,3,2,1338,"1 Car, plus Golf Car Garage",,28.84912928,-81.9885232,A,P,,245180
S941.11,1103 BARRINEAU PL,The Village of Fernandina,Sumter,Arlington,415000,3,2,1875,"1 Car, plus Golf Car Garage",,28.8532889,-81.9782999,A,P,VkH9RP_Uyjg,245578
S952.65,1483 OLYMPIA ST,The Village of Fernandina,Sumter,Colony,319900,2,2,1156,"1 Car, plus Golf Car Garage",,28.84969241,-81.98822782,A,P,0,245542
S952.66,1479 OLYMPIA ST,The Village of Fernandina,Sumter,Cabot Cove,325000,2,2,1188,"1 Car, plus Golf Car Garage",,28.84963869,-81.98810217,A,P,,245779
S199.29,3327 DALKEITH TER,The Village of Charlotte,Sumter,Holly,499900,3,2,2124,2 Car Garage,,28.85313105,-81.97236283,A,P,,245913
S947.8,3242 EVANSIDE LN,The Village of Charlotte,Sumter,Callaway,329000,2,2,1206,"1 Car, plus Golf Car Garage",,28.85457838,-81.96466407,A,P,,245503
S947.45,585 BURNSIDE PL,The Village of Charlotte,Sumter,Valparaiso,349000,3,2,1357,"1 Car, plus Golf Car Garage",,28.85498593,-81.96324278,A,P,,245967
S945.42,558 NETHERWOOD PL,The Village of Charlotte,Sumter,Fairmont,689000,3,2,1602,2 Car Garage,Swimming Pool,28.85263989,-81.96260612,A,P,,245814
S188.2,793 UNDERPAR LN,The Village of Charlotte,Sumter,Grandview,2200000,4,3,3546,3 + Car Garage,,28.84754089,-81.96969679,A,P,Wq8aFQD6U2Q,244773
S188.19,3646 ENTERPRISE DR,The Village of Charlotte,Sumter,Sanibel,1395000,3,2,3201,3 Car Garage,Swimming Pool,28.84493573,-81.96582998,A,P,rIDCLVP3RIU,245799
S209.81,3158 EASTFIELD PATH,The Village of Gilchrist,Sumter,Holly,485000,3,2,2144,2 Car Garage,,28.85695803,-81.98691446,A,P,,246097
S210.107,2917 AMHERST WAY,The Village of Gilchrist,Sumter,Ivy,949000,4,2,2606,"2 Car, plus Golf Car Garage",,28.86295395,-81.98332972,A,P,,245188
S211.163,1578 NORWOOD ST,The Village of Gilchrist,Sumter,Gardenia,479000,3,2,1907,"2 Car, plus Golf Car Garage",,28.86289121,-81.99090917,A,P,,246007
S212.34,2930 STEPPING STONE PATH,The Village of Gilchrist,Sumter,Gardenia,849000,3,2,2060,2 Car Garage,,28.8627469,-81.99561411,A,P,,245893
S214.1,1356 RESTHAVEN WAY,The Village of Gilchrist,Sumter,Jasmine,425000,3,2,1585,2 Car Garage,,28.8533951,-81.98506221,A,P,,245249
S953.13,1764 BRANDENBURG CT,The Village of Gilchrist,Sumter,Charlotte,355000,3,2,1416,"1 Car, plus Golf Car Garage",,28.86022213,-81.99636998,A,P,,245368
S224.30,2840 APACHE CT,The Village of Pinellas,Sumter,Ivy,925000,4,2,2543,"2 Car, plus Golf Car Garage",,28.86411679,-82.00523555,A,P,,245228
S225.113,3047 NIGHTHAWK TER,The Village of Pinellas,Sumter,Sunflower,498000,3,2,1875,"2 Car, plus Golf Car Garage",,28.85923053,-82.00191653,A,P,VI51FUjcKHg,245816
S228.19,2969 CANYON AVE,The Village of Pinellas,Sumter,Gardenia,898000,3,2,1956,"2 Car, plus Golf Car Garage",,28.86117821,-82.01285813,A,P,,245844
S228.23,2994 CANYON AVE,The Village of Pinellas,Sumter,Iris,775000,3,2,1943,"2 Car, plus Golf Car Garage",Swimming Pool,28.86047027,-82.01322666,A,P,,245649
S229.6,2963 BARTOW LN,The Village of Pinellas,Sumter,Iris,549000,3,2,1977,"2 Car, plus Golf Car Garage",,28.86125816,-82.01397081,A,P,sWNby5lJQ0w,244975
S229.53,3028 BUTTERCUP WAY,The Village of Pinellas,Sumter,Begonia,574000,3,2,1944,"2 Car, plus Golf Car Garage",,28.85958478,-82.01512149,A,P,,245948
S951.74,2443 UPTON ST,The Village of Pinellas,Sumter,Cabot Cove,315000,2,2,1188,"1 Car, plus Golf Car Garage",,28.85870772,-82.01481679,A,P,,246051
S223.105,3334 NORCOOSE RD,The Village of Collier,Sumter,Sunflower,439900,3,2,1920,"2 Car, plus Golf Car Garage",,28.85213952,-82.00291852,A,P,,245846
S223.184,3322 KENNEDY AVE,The Village of Collier,Sumter,Elm,529999,3,2,1976,2 Car Garage,,28.85260428,-82.00392331,A,P,,244944
S230.54,3390 MAPLEWOOD CT,The Village of Collier,Sumter,Wisteria,427699,3,2,1624,2 Car Garage,,28.85116145,-82.01354838,A,P,,243780
S230.102,3331 KELVINGTON RD,The Village of Collier,Sumter,Lily,624000,3,2,2210,2 Car Garage,,28.85276253,-82.01274016,A,P,Jd-zX6HXBAc,245407
S231.45,3539 RAGSDALE LOOP,The Village of Collier,Sumter,Bridgeport,475000,3,2.5,2084,2 Car Garage,,28.84978656,-82.01310488,A,P,,244196
S232.142,3428 WENTROP AVE,The Village of Collier,Sumter,Iris,589900,3,2,1965,"2 Car, plus Golf Car Garage",,28.85016507,-82.01816292,A,P,t2ztfKx-S7s,245924
S954.58,3492 OLDHAM LN,The Village of Collier,Sumter,MODIFIED ANAHEIM,449900,3,2,1511,"1 Car, plus Golf Car Garage",,28.84860044,-82.0114577,A,P,,243620
S963.1,3434 MELBOURNE LN,The Village of Collier,Sumter,Fairmont,534900,3,2,1602,"1 Car, plus Golf Car Garage",,28.84993092,-82.0070638,A,P,tZXlddYg7O4,245734
S963.24,2170 SANDALWOOD PL,The Village of Collier,Sumter,Charlotte,447000,3,2,1504,"1 Car, plus Golf Car Garage",,28.84789792,-82.00718575,A,P,,246005
S963.47,2138 ANTILLES CT,The Village of Collier,Sumter,Avondale,679000,3,2,1608,2 Car Garage,Swimming Pool,28.84883136,-82.00651956,A,P,,246061
S959.32,3428 ALWYNE AVE,The Village of Collier,Sumter,Colony,279750,2,2,1156,"1 Car, plus Golf Car Garage",,28.85010917,-82.02031286,A,P,,245361
S959.42,3384 ALWYNE AVE,The Village of Collier,Sumter,Cabot Cove,299999,2,2,1188,"1 Car, plus Golf Car Garage",,28.85120925,-82.0203019,A,P,,245963
S959.49,2617 MARGARET PL,The Village of Collier,Sumter,Colony,289900,2,2,1156,"1 Car, plus Golf Car Garage",,28.85173325,-82.01981006,A,P,,244292
S955.55,2564 ALCADE PL,The Village of Collier,Sumter,Bonifay,345000,3,2,1407,"1 Car, plus Golf Car Garage",,28.84808774,-82.01831748,A,P,,246113
S217.40,1602 SHALE TRAIL LOOP,The Village of Hillsborough,Sumter,Boxwood,899800,3,2,2128,"2 Car, plus Golf Car Garage",,28.84554142,-81.99176095,A,P,,244721
S217.54,1512 SHALE TRAIL LOOP,The Village of Hillsborough,Sumter,Holly,489000,3,2,2124,2 Car Garage,,28.84674218,-81.98918885,A,P,,245979
S217.58,1488 SHALE TRAIL LOOP,The Village of Hillsborough,Sumter,Jasmine,424900,3,2,1589,2 Car Garage,,28.84737448,-81.98891167,A,P,,245439
S220.27,3567 INFINITY RUN,The Village of Hillsborough,Sumter,Lantana,579000,3,2,2035,2 Car Garage,,28.84366325,-82.00349002,A,P,,245383
S221.86,2147 IVEYWOOD ST,The Village of Hillsborough,Sumter,Pearl,340000,2,2,1269,2 Car Garage,,28.84364937,-82.006844,A,P,,244240
S221.140,3763 COSMOS WAY,The Village of Hillsborough,Sumter,At Ease,362000,3,2,1482,2 Car Garage,,28.84192389,-82.00547868,A,P,,246043
S967.9,3503 VAIL CT,The Village of Hillsborough,Sumter,Arlington,737500,3,2,1792,2 Car Garage,Swimming Pool,28.84830569,-82.00464034,A,P,LIPHNixlxeM,244440
S218.57,3641 VINELAND AVE,The Village of Lake Deaton,Sumter,Iris,689900,3,2,1999,"2 Car, plus Golf Car Garage",,28.84496715,-81.99812446,A,P,,245820
S218.69,3520 QUIETWOODS DR,The Village of Lake Deaton,Sumter,Gardenia,819900,3,2,2060,3 Car Garage,Swimming Pool,28.84752211,-81.99895491,A,P,,245647
S234.100,4021 NORTHWOOD PL,The Village of Lake Deaton,Sumter,Laurel Oak,929000,3,2.5,2319,"2 Car, plus Golf Car Garage",,28.83570402,-81.99838426,A,P,,246116
S234.149,3797 UNIQUE ST,The Village of Lake Deaton,Sumter,Ivy,769000,4,2,2534,,,28.84092612,-81.99762942,A,P,fo_EVNsXu7g,245900
S234.156,1819 ZIRCON PL,The Village of Lake Deaton,Sumter,Ivy,869900,4,2,2534,"2 Car, plus Golf Car Garage",,28.84178298,-81.99731933,A,P,,244892
S234.223,3801 NEIGHBORLY WAY,The Village of Lake Deaton,Sumter,Wisteria,369000,3,2,1584,2 Car Garage,,28.8414217,-82.00025452,A,P,,245854
S234.230,3962 NEIGHBORLY WAY,The Village of Lake Deaton,Sumter,Cedar,469000,3,2,1800,2 Car Garage,,28.83697293,-81.9993986,A,P,,245600
S234.255,4032 WARNOCK RD,The Village of Lake Deaton,Sumter,Jasmine,549316,3,2,1593,"2 Car, plus Golf Car Garage",,28.83608491,-81.99932978,A,P,,245868
S236H.131,1776 WAX BERRY CT,The Village of Lake Deaton,Sumter,Iris,649000,3,2,1944,"2 Car, plus Golf Car Garage",,28.84073526,-81.99662371,A,P,,246185
S202.92,1201 TARFLOWER TER,The Village of Dunedin,Sumter,Gardenia,539900,3,2,1976,2 Car Garage,,28.8448358,-81.98068502,A,P,,246026
S202.218,3774 TIMBER TER,The Village of Dunedin,Sumter,Lily,599000,3,2,1953,"2 Car, plus Golf Car Garage",,28.84150527,-81.98457028,A,P,e2jN7B9eYc8,244903
S204.16,1245 READING RD,The Village of Dunedin,Sumter,Gardenia,780000,3,2,1976,"2 Car, plus Golf Car Garage",,28.8489215,-81.98189566,A,P,,246107
S204.136,1256 READING RD,The Village of Dunedin,Sumter,Allamanda,374900,3,2,1559,2 Car Garage,,28.84838744,-81.98200094,A,P,,246012
S237.18,1497 WALNUT WAY,The Village of Dunedin,Sumter,Jasmine,435000,3,2,1639,2 Car Garage,,28.84699025,-81.98879586,A,P,,244320
S961.64,945 WREN ST,The Village of Dunedin,Sumter,Arlington,519000,3,2,1654,"1 Car, plus Golf Car Garage",,28.84700865,-81.97353973,A,P,,246062
S962.22,3734 WALDO TER,The Village of Dunedin,Sumter,Colony,316000,2,2,1156,"1 Car, plus Golf Car Garage",,28.84270363,-81.98668511,A,P,,246201
S971.11,574 BERMUDEZ CT,Haciendas of Mission Hills,Sumter,Charlotte,469500,3,2,1518,"1 Car, plus Golf Car Garage",,28.91971505,-81.96699359,A,P,F7oJyPhhtMI,245302
S969.85,3052 CHARLEVOIX ST,The Village of Collier at Alden Bungalows,Sumter,Wyndham,575000,3,2,1819,2 Car Garage,,28.8477302,-82.02806435,A,P,,244797
S969.95,2867 INTERLOCHEN RD,The Village of Collier at Alden Bungalows,Sumter,Charlotte,499000,3,2,1464,2 Car Garage,,28.84825997,-82.02695319,A,P,,244433
S183.92,427 PARSLEY RD,The Village of Labelle,Sumter,Jasmine,415000,3,2,1558,2 Car Garage,,28.85107881,-81.95827924,A,P,,245496
S183.98,420 PARSLEY RD,The Village of Labelle,Sumter,Allamanda,399800,3,2,1559,2 Car Garage,,28.85155333,-81.95825538,A,P,,246029
S183.120,428 POMEGRANATE PATH,The Village of Labelle,Sumter,Cedar,489500,3,2,1827,2 Car Garage,,28.85212336,-81.95860456,A,P,MeCTTG-fsfw,244375
S183.159,378 ALTEZA LN,The Village of Labelle,Sumter,Zinnia,698000,3,3,2084,3 Car Garage,,28.85175357,-81.95732647,A,P,,245398
S186.55,492 PINFISH CT,The Village of Labelle,Sumter,Ivy,803395,4,2,2584,"2 Car, plus Golf Car Garage",,28.85085051,-81.96178092,A,P,QGpa7uEAZhk,245754
S833.4,11218 HESS WAY,Oxford Oaks - Family Neighborhood,Sumter,Sycamore-OO,429000,3,2,1850,2 Car Garage,Swimming Pool,28.91922727,-82.05244671,A,P,,245153
S833.21,11194 HESS WAY,Oxford Oaks - Family Neighborhood,Sumter,Sandpiper-OO,270000,3,2,1361,2 Car Garage,,28.91730729,-82.05110339,A,P,,242311
S833.26,11106 LAMMER LN,Oxford Oaks - Family Neighborhood,Sumter,Sarasota,639000,4,2,2538,3 Car Garage>..<3 + Car Garage,,28.91705997,-82.05027456,A,P,,244941
S833.46,3120 CARTER PATH,Oxford Oaks - Family Neighborhood,Sumter,Columbia,519000,4,3,2681,2 Car Garage,,28.91981089,-82.04972587,A,P,,246197
S833.102,11214 PARDO PL,Oxford Oaks - Family Neighborhood,Sumter,Sycamore,619900,3,2.5,1997,2 Car Garage,Swimming Pool,28.92007022,-82.04797613,A,P,,243560
S833.122,3274 SENNETT CIR,Oxford Oaks - Family Neighborhood,Sumter,CUSTOM DESIGNER,599000,3,3,1924,"2 Car, plus Golf Car Garage",Swimming Pool,28.91678731,-82.04910623,A,P,,246123
S833.211,3347 TRULUCK PL,Oxford Oaks - Family Neighborhood,Sumter,Lantana-OO,450000,3,2,2028,"2 Car, plus Golf Car Garage",,28.91810142,-82.04787195,A,P,,245840
S833.254,11221 ROZ WAY,Oxford Oaks - Family Neighborhood,Sumter,Laurel Oak-10-OO,615000,3,2.5,2487,3 Car Garage,,28.91916265,-82.0414684,A,P,,245954
S833.266,11198 ROZ WAY,Oxford Oaks - Family Neighborhood,Sumter,Liberty,873246,4,2.5,3333,3 + Car Garage,Swimming Pool,28.91727423,-82.04286513,A,P,IqKi1rwL52Q,245899
S833.428,3284 DZURO DR,Oxford Oaks - Family Neighborhood,Sumter,Putnam-OO,529900,4,2,2003,2 Car Garage,Swimming Pool,28.92128647,-82.04682802,A,P,iHVKHSpjNFo,245108
S833.431,3276 DZURO DR,Oxford Oaks - Family Neighborhood,Sumter,Sandpiper-OO,339000,3,2,1361,2 Car Garage,,28.92127051,-82.04782303,A,P,,244760
S833.492,3484 KELLAHER PL,Oxford Oaks - Family Neighborhood,Sumter,Allamanda-OO,335000,3,2,1557,2 Car Garage,,28.92233313,-82.04497749,A,P,,245113
S833.546,11383 SOUTAR AVE,Oxford Oaks - Family Neighborhood,Sumter,Pebble Beach-OO,305500,3,2,1444,2 Car Garage,,28.92296304,-82.04709855,A,P,,245602
S190.29,823 IRON OAK WAY,Osceola Hills at Soaring Eagle Preserve,Sumter,Sanibel,2299000,3,3,3218,3 Car Garage,Swimming Pool,28.83585163,-81.97181312,A,P,,245888
S190.73,849 OAKWOOD ST,Osceola Hills at Soaring Eagle Preserve,Sumter,Chesapeake,1575000,4,3,3420,3 Car Garage,Swimming Pool,28.83680606,-81.97101228,A,P,Gl0nIfDNSIg,244893
S189.7,3940 VIEW PATH,Osceola Hills at Soaring Eagle Preserve,Sumter,Lily,1099800,3,2,2025,3 + Car Garage,Swimming Pool,28.83666485,-81.96817443,A,P,,245195
S189.33,3806 VIEW PATH,Osceola Hills at Soaring Eagle Preserve,Sumter,Lantana,999900,3,2,2142,"2 Car, plus Golf Car Garage",Swimming Pool,28.84135159,-81.96867466,A,P,TGGbYqPVTvA,245137
S191.35,415 ISLAND HOUSE PATH,The Village of Osceola Hills,Sumter,Bridgeport,1250000,3,2.5,2131,"2 Car, plus Golf Car Garage",Swimming Pool,28.83692743,-81.95850321,A,P,FQFgZCuljm0,245280
S191.68,4013 MCDOWELL DR,The Village of Osceola Hills,Sumter,Ivy,969000,4,2,2776,3 Car Garage,,28.83530189,-81.95844986,A,P,,244784
S191.100,3980 ZENITH LOOP,The Village of Osceola Hills,Sumter,Jasmine,425000,3,2,1569,2 Car Garage,,28.83649463,-81.96074535,A,P,,244644
S191.142,443 JUNGLE PLUM WAY,The Village of Osceola Hills,Sumter,Aspen,489000,3,2,1943,2 Car Garage,,28.83614819,-81.95976125,A,P,,245508
S192.42,4106 DESKIN LN,The Village of Osceola Hills,Sumter,Boxwood,1075000,3,2,2244,,Swimming Pool,28.8333217,-81.96103332,A,P,,245272
S192.58,4131 VICTORY DR,The Village of Osceola Hills,Sumter,Lilac,515000,3,2,1989,"2 Car, plus Golf Car Garage",,28.8334067,-81.96347354,A,P,,245907
S192.84,4106 VICTORY DR,The Village of Osceola Hills,Sumter,Aspen,544000,3,2,1904,"2 Car, plus Golf Car Garage",,28.83397696,-81.96421719,A,P,ajA3zZSjDEs,245122
S192.102,667 VIKING PL,The Village of Osceola Hills,Sumter,Lantana,525555,3,2,2031,,,28.83283104,-81.96538688,A,P,,245735
S193.121,4220 VAPOR CT,The Village of Osceola Hills,Sumter,Elm,569000,3,2,1954,"2 Car, plus Golf Car Garage",,28.83073651,-81.95974792,A,P,wbcZea-jFFw,244875
S193.188,456 WATERCRESS ST,The Village of Osceola Hills,Sumter,Iris,545000,3,2,1937,"2 Car, plus Golf Car Garage",,28.83037557,-81.9598702,A,P,w0v8fgO_nTs,245348
S194.123,728 CONGAREE LOOP,The Village of Osceola Hills,Sumter,Begonia,1077711,3,2.5,2829,"2 Car, plus Golf Car Garage",,28.83059469,-81.96631289,A,P,,245642
S194.163,4316 BRIGGS AVE,The Village of Osceola Hills,Sumter,Begonia,527500,3,2,1979,"2 Car, plus Golf Car Garage",,28.8287321,-81.96476133,A,P,,245499
S195.114,484 AMICI AVE,The Village of Osceola Hills,Sumter,Indigo,749000,3,3,1869,"2 Car, plus Golf Car Garage",Swimming Pool,28.8249454,-81.96031474,A,P,0pjX2aQCeJw,245551
L25.1,2954 HEINY PL,The Village of Pine Ridge,Lake,Ivy,689000,4,2,2828,"2 Car, plus Golf Car Garage",,28.86156056,-81.95131276,A,P,dUl_ZCYSL0U,244275
L25.4,2953 HEINY PL,The Village of Pine Ridge,Lake,Aspen,555000,3,2,1990,"2 Car, plus Golf Car Garage",,28.86120984,-81.95070797,A,P,,244198
L26.33,825 INCORVAIA WAY,The Village of Pine Ridge,Lake,Allamanda,414900,3,2,1559,2 Car Garage,,28.85921568,-81.94024853,A,P,,245314
L26.45,3093 BLACKSTOCK WAY,The Village of Pine Ridge,Lake,Jasmine,389000,3,2,1599,2 Car Garage,,28.858147,-81.93873714,A,P,nW5GYQApBxQ,245885
L26.49,3115 BLACKSTOCK WAY,The Village of Pine Ridge,Lake,Aspen,494900,3,2,1917,2 Car Garage,,28.85742466,-81.93874613,A,P,,243014
L26.144,3127 TISOT WAY,The Village of Pine Ridge,Lake,Jasmine,399999,3,2,1644,2 Car Garage,,28.85701612,-81.93977036,A,P,,244612
L27.23,3139 KRAMER CT,The Village of Pine Ridge,Lake,At Ease,389900,3,2,1514,2 Car Garage,,28.85712413,-81.93724652,A,P,,244833
L28.14,3167 BURNS DR,The Village of Pine Ridge,Lake,Ivy,1250000,4,2.5,3260,3 + Car Garage,,28.85664291,-81.93638729,A,P,_0vWIQeGxTI,245301
L28.61,717 SHELTON ST,The Village of Pine Ridge,Lake,Hammock,359000,3,2,1601,2 Car Garage,,28.85559462,-81.93735118,A,P,,244504
L35.90,3215 MARKWARD DR,The Village of Pine Ridge,Lake,Begonia,485000,3,2,1853,"2 Car, plus Golf Car Garage",,28.8551952,-81.94236237,A,P,bFa9vW5zIww,244325
L35.98,3247 JOY LN,The Village of Pine Ridge,Lake,Mossy Oak,549700,3,3,2200,"2 Car, plus Golf Car Garage",,28.85459323,-81.9414093,A,P,,245750
L35.114,3214 MARKWARD DR,The Village of Pine Ridge,Lake,Zinnia,550000,3,3,2037,"2 Car, plus Golf Car Garage",,28.85517879,-81.94280379,A,P,,245505
L36.27,3268 WEBSTER WAY,The Village of Pine Ridge,Lake,Santa Rosa,345000,3,2,1653,2 Car Garage,,28.85393533,-81.94561442,A,P,,244519
L36.68,3146 TRUSSLER TER,The Village of Pine Ridge,Lake,Gardenia,825000,3,2,2134,3 Car Garage,Swimming Pool,28.85683821,-81.94570427,A,P,,245951
L36.108,3217 WEBSTER WAY,The Village of Pine Ridge,Lake,Sun Kissed,397711,3,2,1392,"2 Car, plus Golf Car Garage",,28.85523026,-81.94528534,A,P,,245790
L104.10,2964 WOTRING WAY,The Village of Pine Ridge,Lake,Arlington,394000,3,2,1652,"1 Car, plus Golf Car Garage",,28.86138551,-81.94836168,A,P,iiFGPmfmf-g,244795
L104.23,2967 THAYER TER,The Village of Pine Ridge,Lake,Charlotte,399900,3,2,1424,"1 Car, plus Golf Car Garage",,28.86122306,-81.94600654,A,P,,244409
L104.52,1067 CARVER CT,The Village of Pine Ridge,Lake,Durham,378888,2,2,1270,"1 Car, plus Golf Car Garage",,28.8607171,-81.9469512,A,P,,245284
L104.53,1061 CARVER CT,The Village of Pine Ridge,Lake,Anaheim,396000,3,2,1391,"1 Car, plus Golf Car Garage",,28.86071636,-81.9468198,A,P,,245730
L104.55,1053 CARVER CT,The Village of Pine Ridge,Lake,Anaheim,364900,3,2,1391,"1 Car, plus Golf Car Garage",,28.86071486,-81.94655702,A,P,,244664
L105.51,875 PARRISH PL,The Village of Pine Ridge,Lake,Anaheim,369000,3,2,1380,"1 Car, plus Golf Car Garage",,28.8606589,-81.94160363,A,P,,245995
L105.57,849 PARRISH PL,The Village of Pine Ridge,Lake,Arlington,425000,3,2,1652,,,28.86065364,-81.94078031,A,P,,245944
L106.37,2987 KRAMER CT,The Village of Pine Ridge,Lake,Arlington,379000,3,2,1652,"1 Car, plus Golf Car Garage",,28.86061919,-81.93860697,A,P,,244356
L106.48,792 ELLIOTT AVE,The Village of Pine Ridge,Lake,Charlotte,399000,3,2,1424,"1 Car, plus Golf Car Garage",,28.86088951,-81.9392868,A,P,5svntnkrUj4,246023
L29.16,3263 PETERSON PL,The Village of Pine Hills,Lake,Ivy,689900,4,3,2678,2 Car Garage,,28.85387309,-81.93706262,A,P,,245295
L29.19,3283 PETERSON PL,The Village of Pine Hills,Lake,Jasmine,399000,3,2,1639,2 Car Garage,,28.85336101,-81.93732325,A,P,Kre-EwJfqpQ,244897
L29.29,3268 BURNS DR,The Village of Pine Hills,Lake,Whispering Pine,434900,3,2,2013,2 Car Garage,,28.85377199,-81.93676089,A,P,,244412
L29.54,675 KAUSKA WAY,The Village of Pine Hills,Lake,Zinnia,929000,3,3,2138,"2 Car, plus Golf Car Garage",,28.85210581,-81.93561166,A,P,UexjcdCMz64,245544
L29.77,3302 BELL TER,The Village of Pine Hills,Lake,Whispering Pine,412000,3,2,1685,"2 Car, plus Golf Car Garage",,28.85306364,-81.93635015,A,P,7IjDJYnexKI,244989
L29.95,648 KAUSKA WAY,The Village of Pine Hills,Lake,Bougainvillea,349000,3,2,1392,2 Car Garage,,28.85341621,-81.93526594,A,P,WhM8zOid6fk,245878
L30.9,3242 HOLLEY TER,The Village of Pine Hills,Lake,Allamanda,415000,3,2,1559,2 Car Garage,,28.85450564,-81.94089229,A,P,,245460
L32.4,897 COLEMAN DR,The Village of Pine Hills,Lake,Begonia,569000,3,2,2007,"2 Car, plus Golf Car Garage",,28.85259023,-81.94243111,A,P,7P7N_eq8HV8,244820
L32.51,3350 HIRSCHI AVE,The Village of Pine Hills,Lake,Iris,535900,3,2,2150,"2 Car Garage>..<2 Car, plus Golf Car Garage",,28.8517085,-81.94132423,A,P,,244919
L32.60,3355 BLAISE TER,The Village of Pine Hills,Lake,At Ease,359000,3,2,1454,2 Car Garage,,28.8518374,-81.94184298,A,P,,246042
L34.53,3362 HASKINS CT,The Village of Pine Hills,Lake,Lily,499900,3,2,2007,2 Car Garage,,28.85168547,-81.94733419,A,P,,245422
L34.66,3327 VELTRE WAY,The Village of Pine Hills,Lake,Iris,795000,3,3,2054,"2 Car, plus Golf Car Garage",Swimming Pool,28.85258775,-81.94627969,A,P,5d2P-JKO9SQ,245845
S94.11,1501 BLENHEIM TRL,The Village of Sunset Ridge at Sunset Pointe,Sumter,Williamsburg,1379000,4,3,3109,"3 Car Garage>..<2 Car, plus Golf Car Garage",,28.89348073,-81.98915144,A,P,Gly_jobwW_E,245211
S613.20,3053 REDBUD LN,The Village of Fenney,Sumter,Cambridge,337500,2,2,1180,"1 Car, plus Golf Car Garage",,28.79933304,-82.03181976,A,P,,245547
S614.12,3103 CORDGRASS CT,The Village of Fenney,Sumter,Topaz,325000,2,2,1232,2 Car Garage,,28.79594253,-82.03303008,A,P,,245746
S614.55,3076 CORDGRASS CT,The Village of Fenney,Sumter,Topaz,319750,2,2,1232,2 Car Garage,,28.79531522,-82.03259714,A,P,,245566
S616.39,2808 BLACK BEAR LN,The Village of Fenney,Sumter,Carrabelle,415000,3,2,1406,"1 Car, plus Golf Car Garage",,28.79565173,-82.02539388,A,P,,246093
S616.57,5616 BOBCAT TER,The Village of Fenney,Sumter,Bonifay,374900,3,2,1409,"1 Car, plus Golf Car Garage",,28.79681792,-82.02536389,A,P,JtDWL5Iy43g,245030
S617.23,5805 EMERSON CT,The Village of Fenney,Sumter,Arlington,469900,3,2,1944,2 Car Garage,,28.79229045,-82.02589898,A,P,,246047
S1F.37,5539 CEDAR WAXWING DR,The Village of Fenney,Sumter,Indigo,639000,3,3,2059,"2 Car, plus Golf Car Garage",,28.79769244,-82.03271324,A,P,_QLkhkkNHlY,244927
S1F.118,3175 SPANISH MOSS WAY,The Village of Fenney,Sumter,Mossy Oak,539900,3,3,1905,,,28.79721083,-82.03396471,A,P,,244416
S2F.1,2958 SPANISH MOSS WAY,The Village of Fenney,Sumter,Sarasota,859800,3,2,2690,2 Car Garage,,28.79461935,-82.02951693,A,P,yGu9z_GWwYs,245815
S2F.72,5577 CEDAR WAXWING DR,The Village of Fenney,Sumter,Gardenia,839500,3,2,1962,"2 Car, plus Golf Car Garage",Swimming Pool,28.79772499,-82.03111484,A,P,_Z5wqEHwEMo,245788
S3F.16,5647 KEY DEER PATH,The Village of Fenney,Sumter,Gardenia,889000,3,2,1971,"2 Car, plus Golf Car Garage",,28.79616908,-82.02842266,A,P,,245126
S3F.17,5655 KEY DEER PATH,The Village of Fenney,Sumter,Sarasota,849850,3,2,2231,3 Car Garage,,28.79594894,-82.02839036,A,P,DhTMrwNBqRE,245489
S3F.29,5539 PASSION FLOWER WAY,The Village of Fenney,Sumter,Mossy Oak,869900,3,3,2017,"2 Car, plus Golf Car Garage",,28.79754937,-82.0281021,A,P,,245304
S4F.33,5638 SEA GRAPES WAY,The Village of Fenney,Sumter,Begonia,1099750,3,2,1984,"2 Car, plus Golf Car Garage",Swimming Pool,28.7961889,-82.02455817,A,P,,245872
S4F.75,5793 ZEBRA LONGWING PATH,The Village of Fenney,Sumter,Indigo,899700,3,3,1869,"2 Car, plus Golf Car Garage",,28.79240691,-82.02153237,A,P,RjJ--2ZNDgQ,245494
S11F.34,5861 WOOD STORK WAY,The Village of Fenney,Sumter,Begonia,529900,3,2,2039,"2 Car, plus Golf Car Garage",,28.79096628,-82.03242407,A,P,,245881
S11F.52,3118 SWEETGUM ST,The Village of Fenney,Sumter,Bougainvillea,349900,3,2,1392,2 Car Garage,,28.79013328,-82.03361688,A,P,8Jyw97b1its,243097
S11F.90,5868 WOOD STORK WAY,The Village of Fenney,Sumter,Lantana,674500,3,2,2016,3 Car Garage,,28.790583,-82.03270526,A,P,,245457
S12F.95,3191 PEARL CRESCENT CT,The Village of Fenney,Sumter,Lilac,459000,3,2,1918,"2 Car, plus Golf Car Garage",,28.79380998,-82.03577587,A,P,,245411
S624.23,3031 BEARD RD,The Village of Fenney,Sumter,Moonstone,319900,2,2,1295,"1 Car, plus Golf Car Garage",,28.79177869,-82.03146661,A,P,,245737
S625.52,3138 ROBBS RD,The Village of Fenney,Sumter,Bonifay,359800,3,2,1495,"1 Car, plus Golf Car Garage",,28.789532,-82.034302,A,P,,246072
S8F.75,5807 GILMORE TER,The Village of Fenney,Sumter,Indigo,599900,3,3,1860,"2 Car, plus Golf Car Garage",,28.79219917,-82.02432361,A,P,,245300
S10F.8,3023 HICKS PL,The Village of Fenney,Sumter,Zinnia,874900,3,3,2015,"2 Car, plus Golf Car Garage",,28.79243261,-82.031154,A,P,,245850
S10F.72,2916 DIVER LOOP,The Village of Fenney,Sumter,Jasmine,419900,3,2,1576,2 Car Garage,,28.790049,-82.02822435,A,P,E8yna2hOzCk,245264
S10F.91,3024 HICKS PL,The Village of Fenney,Sumter,Begonia,575000,3,2,2290,"2 Car, plus Golf Car Garage",,28.79203139,-82.0311929,A,P,_Y9kce_jiDk,246020
S10F.105,2925 HICKS PL,The Village of Fenney,Sumter,Lilac,449900,3,2,1918,"2 Car, plus Golf Car Garage",,28.79251185,-82.02855446,A,P,,245993
S10F.121,5810 PENNEY LN,The Village of Fenney,Sumter,Lantana,665000,3,2,2016,"2 Car, plus Golf Car Garage",Swimming Pool,28.79214236,-82.02838721,A,P,a8i93DesW4s,245849
S615.7,3006 GALLINULE CT,The Village of Fenney,Sumter,Emerald,313921,3,2,1426,"1 Car, plus Golf Car Garage",,28.79515356,-82.03066987,A,P,,244388
S615.46,2991 GALLINULE CT,The Village of Fenney,Sumter,Ruby,299750,2,2,1269,"1 Car, plus Golf Car Garage",,28.79563342,-82.03036007,A,P,qt_Inr7UE0o,245705
S615.52,3019 GALLINULE CT,The Village of Fenney,Sumter,Ruby,279000,2,2,1269,"1 Car, plus Golf Car Garage",,28.79534582,-82.03114152,A,P,,243461
M233.1,16717 SE 74TH SOULLIERE AVENUE,The Village of Chatham at Soulliere,Marion,Somerville,499621,3,2,1501,2 Car Garage,Swimming Pool,28.97864016,-82.03021336,A,P,,246035
S619.43,2473 NELLIE RD,The Village of DeSoto,Sumter,Avondale,449000,3,2,1624,"1 Car, plus Golf Car Garage",,28.79403521,-82.01622484,A,P,gfAJ2jK3Q78,246173
S620.36,2384 SNELL ST,The Village of DeSoto,Sumter,Bonifay,369900,3,2,1409,2 Car Garage,,28.79014787,-82.01375475,A,P,_e8qAwa7NKY,245883
S620.43,5864 TUPELO TER,The Village of DeSoto,Sumter,Carrabelle,324750,2,2,1147,"1 Car, plus Golf Car Garage",,28.79069073,-82.0132567,A,P,,244847
S620.56,5841 UNGER CT,The Village of DeSoto,Sumter,Valparaiso,364000,3,2,1380,"1 Car, plus Golf Car Garage",,28.79123315,-82.01354756,A,P,dhs1HkLXaqU,245577
S621.19,2492 LAY LN,The Village of DeSoto,Sumter,Auburndale,389000,3,2,1473,2 Car Garage,,28.78560105,-82.01665633,A,P,,245688
S622.12,2436 HILL ST,The Village of DeSoto,Sumter,Onyx,379000,2,2,1314,2 Car Garage,,28.78558163,-82.01518337,A,P,,244743
S5F.64,5713 CARLEY LOOP,The Village of DeSoto,Sumter,Mossy Oak,545000,3,3,1905,"2 Car, plus Golf Car Garage",,28.79482778,-82.01825906,A,P,,246059
S6F.79,5844 HERNDON TER,The Village of DeSoto,Sumter,Sycamore,498500,3,2,1836,3 Car Garage,,28.79134457,-82.0153969,A,P,tQN5ftSRS18,245970
S14V.40,2247 GORDON PATH,The Village of McClure,Sumter,Laurel Oak-10,989900,3,2,2316,"2 Car, plus Golf Car Garage",,28.78740464,-82.00971018,A,P,sgRy8kBR6tI,245866
S14V.62,5938 BRITTON DR,The Village of McClure,Sumter,Jasmine,475000,3,2,1624,"2 Car, plus Golf Car Garage",,28.78893801,-82.01171827,A,P,,245641
S16V.75,2321 STIVENDER PL,The Village of McClure,Sumter,Eaton,414800,3,2,1569,2 Car Garage,,28.7916498,-82.01172956,A,P,,245714
S17V.36,2081 CANNON LOOP,The Village of McClure,Sumter,Alder,429900,3,2,1539,2 Car Garage,,28.79377272,-82.00772445,A,P,,245998
S18V.7,2074 BILLER CIR,The Village of McClure,Sumter,Linden,949000,3,3,2013,"2 Car, plus Golf Car Garage",Swimming Pool,28.79728914,-82.00854457,A,P,CboEBTQiJQw,245470
S19V.64,5631 HEAD WAY,The Village of McClure,Sumter,Lily,569000,3,2,1911,"2 Car, plus Golf Car Garage",,28.7969181,-82.01005311,A,P,g7cg1BKS8_I,245110
S718.41,6055 NEILSON CT,The Village of McClure,Sumter,Winslow,498700,3,2,1743,2 Car Garage,,28.78615949,-82.00969666,A,P,mtWn6dYIGMc,245975
S721.19,5571 ANDERS AVE,The Village of McClure,Sumter,Jasper,349500,2,2,1159,"2 Car, plus Golf Car Garage",,28.79790637,-82.00644232,A,P,,245112
S721.21,5579 ANDERS AVE,The Village of McClure,Sumter,Opal,289000,2,2,1221,"1 Car, plus Golf Car Garage",,28.79766408,-82.00640917,A,P,,246200
S973.55,2908 TORCH POINT LANE,The Village of Collier at Atwood Bungalows,Sumter,Winslow,653300,3,2,1738,"2 Car, plus Golf Car Garage",,28.84646853,-82.02780226,A,P,RfKPuShqKmM,246115
S20V.37,2290 SEEBALD ST,The Village of Marsh Bend,Sumter,Zinnia,949900,3,3,2255,3 Car Garage,,28.80354783,-82.01088483,A,P,,245178
S21V.3,2361 BOUDREAU CIR,The Village of Marsh Bend,Sumter,Iris-10,1395000,3,2,2144,"2 Car, plus Golf Car Garage",Swimming Pool,28.80384954,-82.01292101,A,P,uyiieRUy4QA,245627
S23V.38,5444 BACON TER,The Village of Marsh Bend,Sumter,Iris-10,649000,3,2,1961,"2 Car, plus Golf Car Garage",,28.80089308,-82.01706989,A,P,9UIICvOp9co,245625
S26V.33,4958 DELONG PL,The Village of Marsh Bend,Sumter,Bridgeport,998500,3,2.5,2241,3 Car Garage,,28.81279988,-82.01635642,A,P,3CEGSkMLM-k,245250
S26V.42,4923 LAWLER LOOP,The Village of Marsh Bend,Sumter,Indigo,958000,3,3,1901,"2 Car, plus Golf Car Garage",Swimming Pool,28.81255311,-82.01817344,A,P,,246121
S29V.2,5082 FOCKLER WAY,The Village of Marsh Bend,Sumter,Mossy Oak,599900,3,3,1925,"2 Car, plus Golf Car Garage",,28.80957038,-82.02430226,A,P,,245933
S724.8,5415 KATE CT,The Village of Marsh Bend,Sumter,Topaz,307000,2,2,1203,2 Car Garage,,28.80144987,-82.01131508,A,P,,245584
S724.30,5424 ZAJAC AVE,The Village of Marsh Bend,Sumter,Topaz,359000,2,2,1203,2 Car Garage,,28.80122709,-82.01256157,A,P,,245962
S724.36,5390 ZAJAC AVE,The Village of Marsh Bend,Sumter,Ruby,299900,2,2,1148,2 Car Garage,,28.80200707,-82.01262918,A,P,,245559
S724.61,5421 ZAJAC AVE,The Village of Marsh Bend,Sumter,Emerald,339900,2,2,1266,"2 Car, plus Golf Car Garage",,28.80136762,-82.01212662,A,P,,246070
S725.9,5472 RYAN RD,The Village of Marsh Bend,Sumter,Opal,311000,2,2,1227,"1 Car, plus Golf Car Garage",,28.80032138,-82.01607567,A,P,,244987
S725.30,5439 WEAVER AVE,The Village of Marsh Bend,Sumter,Sapphire,345000,2,2,1462,"1 Car, plus Golf Car Garage",,28.80109261,-82.01427813,A,P,,245661
S728.28,4990 JEFFERS TER,The Village of Marsh Bend,Sumter,Charlotte,389000,3,2,1484,2 Car Garage,,28.81199875,-82.02345549,A,P,,246045
S727.9,2751 DYSON LOOP,The Village of Marsh Bend,Sumter,Ruby,275000,2,2,1148,"1 Car, plus Golf Car Garage",,28.81322563,-82.0241874,A,P,,244604
S33V.7,5711 HENRY LOOP,The Village of Linden,Sumter,Alder,450000,3,2,1539,2 Car Garage,,28.79353688,-82.00190309,A,P,lrIfgJ0e9Nk,245869
S33V.44,5768 HENRY LOOP,The Village of Linden,Sumter,Jasmine,649000,3,2,1569,2 Car Garage,Swimming Pool,28.79545941,-82.00088266,A,P,,245741
S35V.83,1844 ALTON AVE,The Village of Linden,Sumter,Citrus,455000,3,2,1611,"2 Car, plus Golf Car Garage",,28.79404588,-81.99861013,A,P,,245717
S43V.3,5845 STORMS AVE,The Village of Linden,Sumter,Sarasota,1250000,3,2,2627,,,28.79115326,-82.00029846,A,P,,245638
S733.24,1987 CROMER PL,The Village of Linden,Sumter,Emerald,319900,2,2,1266,"1 Car, plus Golf Car Garage",,28.79469111,-82.00243787,A,P,jmoSra5crJM,245596
S734.42,5670 HERMAN AVE,The Village of Linden,Sumter,Carrabelle,344750,2,2,1290,2 Car Garage,,28.79556604,-81.99807987,A,P,,245582
S36A.23,5901 HICKEY WAY,The Village of Monarch Grove,Sumter,Sandpiper,334900,3,2,1353,"1 Car, plus Golf Car Garage",,28.78993396,-81.99002241,A,P,,244800
S36V.7,5745 HICKEY WAY,The Village of Monarch Grove,Sumter,Gardenia,999000,3,2,2060,"2 Car, plus Golf Car Garage",Swimming Pool,28.79253833,-81.99500145,A,P,C-Jf8ZBcNms,245047
S38V.66,5944 HICKEY WAY,The Village of Monarch Grove,Sumter,Lantana,798000,3,2,2016,3 Car Garage,,28.78863515,-81.98895373,A,P,DoXWrcL3M3w,244328
S39V.83,1647 NATALINO RD,The Village of Monarch Grove,Sumter,Ponderosa Pine,515900,4,2,1984,"2 Car, plus Golf Car Garage",,28.78708566,-81.99298281,A,P,,244733
S42V.22,5878 FLINT LOOP,The Village of Monarch Grove,Sumter,Bridgeport-5/Osprey,1325000,3,2.5+,2361,"2 Car, plus Golf Car Garage",,28.79112317,-81.99777227,A,P,RzZ2nYyqRDM,245529
S737.8,1989 CERNY CT,The Village of Monarch Grove,Sumter,Bonifay,389000,3,2,1484,2 Car Garage,,28.78875234,-82.00244217,A,P,,244482
S738.4,1921 GROESSER PL,The Village of Monarch Grove,Sumter,Ruby,302800,2,2,1148,"1 Car, plus Golf Car Garage",,28.78614467,-82.00036325,A,P,,245199
S738.17,6082 BUDNY AVE,The Village of Monarch Grove,Sumter,Cottage,239000,1,1,838,"1 Car, plus Golf Car Garage",,28.7854442,-82.00109194,A,P,,245973
S30A.21,4860 CORDER RUN,The Village of DeLuna,Sumter,Lantana-10,1175000,3,2,2016,,,28.81529513,-82.0195308,A,P,ggOWjZIgCs4,245994
S32V.5,2822 MESSINA PATH,The Village of DeLuna,Sumter,Laurel Oak,1150000,3,2,2304,3 + Car Garage,Swimming Pool,28.8213784,-82.02561624,A,P,SYc4CH1iEyE,244978
S32V.50,4535 AUSTIN AVE,The Village of DeLuna,Sumter,Lily,599900,3,2,1911,3 Car Garage,,28.82298572,-82.02668514,A,P,4IAocICyBTk,244949
S730.5,4860 TATE GREGORY CT,The Village of DeLuna,Sumter,Ruby,309900,2,2,1148,2 Car Garage,,28.81518041,-82.0250139,A,P,,245673
S731.30,2801 KILCREASE LOOP,The Village of DeLuna,Sumter,Bonifay,424444,3,2,1484,2 Car Garage,,28.82104286,-82.02469158,A,P,,246060
S117V.34,4444 SHANNON LOOP,The Village of DeLuna,Sumter,Begonia,868000,3,2,2048,"2 Car, plus Golf Car Garage",Swimming Pool,28.82469977,-82.0320035,A,P,9Fl3lAOmOaM,246056
S117V.66,2988 SENTELL ST,The Village of DeLuna,Sumter,Zinnia,849900,3,3,2112,"2 Car, plus Golf Car Garage",,28.82474747,-82.03000502,A,P,,245656
S117V.85,3027 SENTELL ST,The Village of DeLuna,Sumter,Alder,399900,3,2,1539,2 Car Garage,,28.82594205,-82.03060256,A,P,,245956
S118V.1,3146 JACQUELINE WAY,The Village of DeLuna,Sumter,Indigo,789000,3,3,1869,"2 Car, plus Golf Car Garage",Swimming Pool,28.82833063,-82.03411349,A,P,,246094
S118V.10,3200 JACQUELINE WAY,The Village of DeLuna,Sumter,Zinnia,749000,3,3,1977,"2 Car, plus Golf Car Garage",,28.82755379,-82.03531324,A,P,YhaEl6eJDpw,244515
S119V.14,4525 WHITTINGTON CIR,The Village of DeLuna,Sumter,Mossy Oak,844800,3,3,1905,"2 Car, plus Golf Car Garage",Swimming Pool,28.82239307,-82.03781696,A,P,,244920
S119V.20,4505 WHITTINGTON CIR,The Village of DeLuna,Sumter,Mossy Oak,950000,3,3.5,2100,"2 Car, plus Golf Car Garage",Swimming Pool,28.82180607,-82.03679118,A,P,,245005
S119V.33,3156 LICCIARDELLO PATH,The Village of DeLuna,Sumter,WARBLER IBIS,998000,4,2,2295,3 Car Garage>..<3 + Car Garage,,28.82324561,-82.03436979,A,P,,246068
S119V.55,4377 WHITTINGTON CIR,The Village of DeLuna,Sumter,Custom Designer,1099997,3,3,2902,"2 Car, plus Golf Car Garage",,28.82558641,-82.03652411,A,P,PRf8ZO7MgX8,245474
S119V.111,4446 WHITTINGTON CIR,The Village of DeLuna,Sumter,Loblolly,410000,3,2,1516,"2 Car, plus Golf Car Garage",,28.82346785,-82.0350013,A,P,,244624
S120V.56,4439 GARCHINSKY AVE,The Village of DeLuna,Sumter,Loblolly,418000,3,2,1516,"2 Car, plus Golf Car Garage",,28.82513199,-82.03783366,A,P,KC270jtVglg,244896
S125V.17,3418 NISBET LOOP,The Village of DeLuna,Sumter,Jasmine,399999,3,2,1569,2 Car Garage,,28.82041099,-82.04147113,A,P,,245331
S125V.34,4684 HAYWARD PATH,The Village of DeLuna,Sumter,Begonia,675000,3,2,2061,"2 Car, plus Golf Car Garage",,28.81931621,-82.04146192,A,P,f4WcAzQDxQ0,244884
S125V.57,4640 WIGHTMAN CIR,The Village of DeLuna,Sumter,Sunflower,799000,3,2,1929,"2 Car, plus Golf Car Garage",Swimming Pool,28.82068463,-82.0444211,A,P,,244842
S125V.84,3446 PARRIS PL,The Village of DeLuna,Sumter,Begonia,529000,3,2,2033,"2 Car, plus Golf Car Garage",,28.82065442,-82.04224121,A,P,,244334
S125V.155,4528 HAYWARD PATH,The Village of DeLuna,Sumter,Linden,649900,3,3,1911,"2 Car, plus Golf Car Garage",,28.82315573,-82.04373364,A,P,,245908
S126V.3,3395 LUTY LN,The Village of DeLuna,Sumter,Sandpiper,349400,3,2,1392,"1 Car, plus Golf Car Garage",,28.82019387,-82.04132245,A,P,,246081
S126V.4,3389 LUTY LN,The Village of DeLuna,Sumter,Anchor,399000,3,2,1547,2 Car Garage,,28.8203044,-82.04119402,A,P,oXDpVnqdV84,244834
S126V.41,4664 RAMSELL RD,The Village of DeLuna,Sumter,Sun Kissed,389000,3,2,1392,"2 Car, plus Golf Car Garage",,28.81968886,-82.03981223,A,P,,245926
S129V.7,4336 PEZZULLO CIR,The Village of DeLuna,Sumter,Tall Pine,374900,3,2,1459,2 Car Garage,,28.82852329,-82.04029237,A,P,,245708
S129V.9,4346 PEZZULLO CIR,The Village of DeLuna,Sumter,MODIFIED DESIGNER,649900,3,2,2071,"2 Car, plus Golf Car Garage",,28.82852994,-82.04068391,A,P,bLm4GCGvmkw,244353
S129V.21,4416 PEZZULLO CIR,The Village of DeLuna,Sumter,Lantana,949000,3,2.5,2382,"2 Car, plus Golf Car Garage",,28.8263149,-82.04110882,A,P,QHDRzxPLg1o,245619
S129V.71,4424 HOMAN LOOP,The Village of DeLuna,Sumter,Wisteria,359900,3,2,1564,2 Car Garage,,28.82571548,-82.04049558,A,P,MnMzmxZLm5k,244948
S129V.77,4409 PEZZULLO CIR,The Village of DeLuna,Sumter,Mossy Oak,499000,3,3,1905,"2 Car, plus Golf Car Garage",,28.82648364,-82.04067486,A,P,,245427
S133V.30,4290 COLLERETTE CT,The Village of DeLuna,Sumter,Alder,420000,3,2,1539,2 Car Garage,,28.82889753,-82.03924603,A,P,,244172
S133V.77,4157 COLLERETTE CT,The Village of DeLuna,Sumter,Begonia,499900,3,2,1949,"2 Car, plus Golf Car Garage",,28.83206897,-82.04147062,A,P,,245288
S133V.106,3313 WIELENGA PL,The Village of DeLuna,Sumter,Sequoia,485000,3,2,1535,"2 Car, plus Golf Car Garage",,28.83075519,-82.03929831,A,P,,245410
S116V.1,4491 ELIJAH LOOP,The Village of DeLuna,Sumter,Avondale,749900,3,2,1696,"2 Car, plus Golf Car Garage",Swimming Pool,28.82428328,-82.02762646,A,P,gHFpglRALBU,245290
S122V.2,4376 WARNELL LN,The Village of DeLuna,Sumter,Emerald,314900,3,2,1440,,,28.82695748,-82.03922817,A,P,CMn7C8ju0lI,243766
S122V.26,3283 DAWN PL,The Village of DeLuna,Sumter,Topaz,305900,2,2,1223,2 Car Garage,,28.82656882,-82.03800032,A,P,,244601
S123V.24,3150 AUREA PL,The Village of DeLuna,Sumter,Ottawa,629000,3,3,1875,"2 Car, plus Golf Car Garage",,28.82387486,-82.03444178,A,P,,245731
S135V.9,4084 GRADY TER,The Village of DeLuna,Sumter,Emerald,299000,2,2,1399,"1 Car, plus Golf Car Garage",,28.83397091,-82.04230307,A,P,,244348
S136V.5,4148 SILVANA WAY,The Village of DeLuna,Sumter,Topaz,299000,2,2,1206,2 Car Garage,,28.83238544,-82.04501791,A,P,,245538
S136V.18,4090 SILVANA WAY,The Village of DeLuna,Sumter,Emerald,309000,2,2,1280,"1 Car, plus Golf Car Garage",,28.83383441,-82.04502155,A,P,xSzJw6a2H5s,245990
S136V.47,4137 CHARLEE LN,The Village of DeLuna,Sumter,Opal,274850,2,2,1240,"1 Car, plus Golf Car Garage",,28.83246365,-82.04436318,A,P,,245633
S130V.23,3135 MELLE PL,The Village of DeLuna,Sumter,Opal,299900,2,2,1240,"1 Car, plus Golf Car Garage",,28.82946556,-82.03376773,A,P,,244929
S132V.26,4179 TIEDEMANN LOOP,The Village of DeLuna,Sumter,Belleville,424000,3,2,1554,2 Car Garage,,28.83167712,-82.03894778,A,P,9cXoG84ujCg,244984
S127V.1,3381 CLARA CT,The Village of DeLuna,Sumter,Topaz,304000,2,2,1206,2 Car Garage,,28.81900057,-82.0404748,A,P,,245756
S127V.21,4725 ARROYO AVE,The Village of DeLuna,Sumter,Moonstone,344900,2,2,1257,"2 Car, plus Golf Car Garage",,28.81846728,-82.03791544,A,P,JMV8ncDY9K8,244738
S127V.27,3300 DAVIS TER,The Village of DeLuna,Sumter,Opal,307000,2,2,1240,"1 Car, plus Golf Car Garage",,28.81816631,-82.03842727,A,P,,245349
S127V.34,3328 DAVIS TER,The Village of DeLuna,Sumter,Opal,329000,2,2,1240,"1 Car, plus Golf Car Garage",,28.81817202,-82.03930166,A,P,,245804
S128V.17,3457 KEITH LN,The Village of DeLuna,Sumter,Avondale,549000,3,2,1705,"2 Car, plus Golf Car Garage",,28.8247413,-82.04281937,A,P,CHJ3Zt7lSXE,246151
S44A.26,1009 WILDER PATH,The Village of Chitty Chatty,Sumter,Aspen,710000,3,2,1900,"2 Car, plus Golf Car Garage",,28.81589607,-81.97559561,A,P,uaJ4MOxw-tc,245518
S44A.31,975 WILDER PATH,The Village of Chitty Chatty,Sumter,Bridgeport,899000,3,2.5,2163,"2 Car, plus Golf Car Garage",,28.81609172,-81.97452081,A,P,,245373
S44V.11,5034 SANDER ST,The Village of Chitty Chatty,Sumter,Zinnia,859900,3,3,1977,"2 Car, plus Golf Car Garage",Swimming Pool,28.81070843,-81.97970308,A,P,pEIBgY7WwvQ,245079
S44V.93,909 WILDER PATH,The Village of Chitty Chatty,Sumter,Begonia,675000,3,2,2048,"2 Car, plus Golf Car Garage",,28.81726518,-81.97293028,A,P,,245447
S45V.20,5012 MCLAUGHLIN TER,The Village of Chitty Chatty,Sumter,Mossy Oak,785000,3,3,1928,"2 Car, plus Golf Car Garage",Swimming Pool,28.81123256,-81.97518841,A,P,YE6ebq_rMgU,243637
S45V.45,929 AKIN WAY,The Village of Chitty Chatty,Sumter,Alder,389000,3,2,1584,2 Car Garage,,28.81284582,-81.97299088,A,P,-,245149
S742.48,4952 CARMEN CT,The Village of Chitty Chatty,Sumter,Haven,255000,2,2,966,,,28.81293987,-81.9743712,A,P,,245786
S744.5,4603 LAZDOWSKI WAY,The Village of Chitty Chatty,Sumter,Winslow,579000,3,2,1809,"2 Car, plus Golf Car Garage",,28.82113334,-81.97029389,A,P,,245475
S744.21,859 LESIEGE LN,The Village of Chitty Chatty,Sumter,Charlotte,449000,3,2,1492,2 Car Garage,,28.82179626,-81.97151438,A,P,ZrrlflXSXSw,245546
S744.38,873 JAY ST,The Village of Chitty Chatty,Sumter,Arlington,549000,3,2,1683,2 Car Garage,,28.82072897,-81.97181731,A,P,8X6p5hmXNUI,245419
S744.49,974 JAY ST,The Village of Chitty Chatty,Sumter,Montclair,530000,3,2,1647,2 Car Garage,,28.8221519,-81.97458247,A,P,,245270
S744.67,4686 HILES PL,The Village of Chitty Chatty,Sumter,Arlington,569900,3,2,1633,2 Car Garage,,28.81942947,-81.97353859,A,P,,244572
S46V.19,5444 DONAHE PATH,The Village of Bradford,Sumter,Begonia,664900,3,2,2033,"2 Car, plus Golf Car Garage",,28.80122289,-81.97847558,A,P,,245037
S46V.37,5375 MARLENE PL,The Village of Bradford,Sumter,Woodside,685000,4,3,2296,"2 Car, plus Golf Car Garage",,28.80260007,-81.97872117,A,P,yUTXie7SxCU,245702
S46V.47,5403 DRAY DR,The Village of Bradford,Sumter,Bridgeport,899000,3,2,2466,"2 Car, plus Golf Car Garage",,28.80273014,-81.97690802,A,P,,246164
S46V.105,971 JARBOE AVE,The Village of Bradford,Sumter,Wisteria,559000,3,2,1592,2 Car Garage,Swimming Pool,28.80041176,-81.974452,A,P,,245242
S46V.113,1025 JARBOE AVE,The Village of Bradford,Sumter,Lilac,499900,3,2,1918,"2 Car, plus Golf Car Garage",,28.79989296,-81.97584354,A,P,MzkT_1M8fuA,245473
S46V.146,987 FREDERICK TER,The Village of Bradford,Sumter,Gardenia,824900,3,2,2060,"2 Car, plus Golf Car Garage",Swimming Pool,28.8010154,-81.97474939,A,P,35LMYNdADSo,244859
S46V.195,5425 BEDNARIK PL,The Village of Bradford,Sumter,Mossy Oak,529900,3,3,1905,"2 Car, plus Golf Car Garage",,28.80143856,-81.97712563,A,P,uTwuC_eIgdw,245601
S47V.72,1125 MAYNARD PATH,The Village of Bradford,Sumter,Woodside,689500,4,3,2296,3 Car Garage,,28.79770969,-81.97754,A,P,gAPl9jfpTE0,245700
S60V.45,5310 DRAY DR,The Village of Bradford,Sumter,Winslow,514900,3,2,1791,2 Car Garage,,28.80403279,-81.9804757,A,P,,245621
S60V.83,1156 TERI TER,The Village of Bradford,Sumter,Montclair,472500,3,2,1647,2 Car Garage,,28.80597306,-81.97954566,A,P,,246004
S60V.101,5294 BUCK ST,The Village of Bradford,Sumter,Charlotte,597007,3,2,1484,2 Car Garage,Swimming Pool,28.80451051,-81.97978342,A,P,slxpmW8hDXE,245818
S60V.115,5315 DRAY DR,The Village of Bradford,Sumter,Newport,429919,3,2,1473,2 Car Garage,,28.80412098,-81.98000623,A,P,,246016
S61V.1,5623 GRACIE LN,The Village of Bradford,Sumter,Topaz,315000,2,2,1220,2 Car Garage,,28.79676384,-81.97571535,A,P,GeJaVUrF4Bs,245498
S61V.16,1063 JANA CT,The Village of Bradford,Sumter,Nest,268000,2,2,971,,,28.79773867,-81.97682662,A,P,,244866
S61V.20,1079 JANA CT,The Village of Bradford,Sumter,Topaz,309900,2,2,1203,2 Car Garage,,28.79755411,-81.97729144,A,P,,246022
S66V.3,573 KAOLIN PATH,The Village of Citrus Grove,Sumter,Durham,374000,2,2,1290,2 Car Garage,,28.78808241,-81.96305661,A,P,,246065
S58V.79,294 JAMESON LOOP,The Village of Citrus Grove,Sumter,Laurel Oak,999869,3,2,2342,3 Car Garage,,28.78386158,-81.95573798,A,P,,245950
S59V.46,6332 FLAXMAYER RD,The Village of Citrus Grove,Sumter,At Ease,329700,3,2,1465,2 Car Garage,,28.77955293,-81.9561384,A,P,,245396
S59V.56,308 MATTSON LOOP,The Village of Citrus Grove,Sumter,Hammock,409900,3,2,1611,2 Car Garage,,28.78074261,-81.95579317,A,P,,246195
S59V.70,295 KLAMUT CT,The Village of Citrus Grove,Sumter,About Time,313000,2,2,1148,"1 Car, plus Golf Car Garage",,28.78046368,-81.95524335,A,P,,243138
S59V.76,302 KLAMUT CT,The Village of Citrus Grove,Sumter,At Ease,374500,3,2,1465,2 Car Garage,,28.78011953,-81.95540966,A,P,0f6R346IImw,242904
S71V.48,6328 DANIELSON LOOP,The Village of Citrus Grove,Sumter,Aspen,575000,3,2,1922,"2 Car, plus Golf Car Garage",,28.78131179,-81.96479692,A,P,,246063
S71V.70,6311 MERHOTTEIN LOOP,The Village of Citrus Grove,Sumter,Bridgeport,915000,3,2.5,2163,"2 Car, plus Golf Car Garage",,28.77975857,-81.96168689,A,P,,245160
S71V.72,6301 MERHOTTEIN LOOP,The Village of Citrus Grove,Sumter,Begonia,790000,3,2,1988,"2 Car, plus Golf Car Garage",,28.77992312,-81.96127344,A,P,gBXVozN5YIw,245992
S71V.104,6210 TRIPP TER,The Village of Citrus Grove,Sumter,Alder,429900,3,2,1602,"2 Car, plus Golf Car Garage",,28.7824382,-81.96269451,A,P,,246156
S71V.140,6201 DANIELSON LOOP,The Village of Citrus Grove,Sumter,Jasmine,419000,3,2,1569,2 Car Garage,,28.78237149,-81.96406875,A,P,,245392
S71V.196,6388 MERHOTTEIN LOOP,The Village of Citrus Grove,Sumter,Wisteria,415000,3,2,1569,2 Car Garage,,28.78050252,-81.96170768,A,P,O9kKxR_eDCM,246079
S68V.5,343 LOGAN ST,The Village of Citrus Grove,Sumter,Jade,324000,2,2,1184,,,28.78239937,-81.95649813,A,P,,244852
S69V.9,6305 WHITTLE CT,The Village of Citrus Grove,Sumter,Topaz,299999,2,2,1203,2 Car Garage,,28.78025036,-81.95641605,A,P,,244646
S69V.31,6334 BERTUCCI AVE,The Village of Citrus Grove,Sumter,Moonstone,344900,2,2,1266,"1 Car, plus Golf Car Garage",,28.77944752,-81.95747313,A,P,,246142
S69V.46,345 LARTIGUE LN,The Village of Citrus Grove,Sumter,Belmore,529000,3,2,1783,"2 Car, plus Golf Car Garage",,28.7806549,-81.95674872,A,P,OMQV9g2WgRo,244360
S70V.3,493 ALYSSA LN,The Village of Citrus Grove,Sumter,Bonifay,449000,3,2,1484,2 Car Garage,,28.78238468,-81.96065614,A,P,,245279
S70V.11,6209 MILAGROS CT,The Village of Citrus Grove,Sumter,Moonstone,338900,2,2,1266,"2 Car, plus Golf Car Garage",,28.7823331,-81.95956983,A,P,,245771
S70V.32,462 SHERELL ST,The Village of Citrus Grove,Sumter,Bonifay,449000,3,2,1484,2 Car Garage,,28.78017968,-81.96003095,A,P,,245429
S70V.78,6248 MILAGROS CT,The Village of Citrus Grove,Sumter,Emerald,319000,2,2,1266,"1 Car, plus Golf Car Garage",,28.78150341,-81.95997271,A,P,,245914
S73V.65,6090 COLLOPY PL,The Village of Citrus Grove,Sumter,Newport,389900,3,2,1473,2 Car Garage,,28.78511602,-81.9642274,A,P,eaVsJrswd4I,245669
S13F.33,3653 ADAMSVILLE AVE,The Village of Hammock at Fenney,Sumter,Mossy Oak,499999,3,3,1928,"2 Car, plus Golf Car Garage",,28.79393937,-82.04876577,A,P,,244455
S139V.22,5921 PRESENTI CT,The Village of Hammock at Fenney,Sumter,Anchor,445500,3,2,1527,2 Car Garage,,28.78912879,-82.05228136,A,P,HFs6yendXUw,245977
S140V.26,5973 PHEIL PATH,The Village of Hammock at Fenney,Sumter,Bougainvillea,387500,3,2,1392,2 Car Garage,,28.78715945,-82.05095374,A,P,,246088
S140V.97,3745 CAUSEY CT,The Village of Hammock at Fenney,Sumter,Tupelo,429900,3,2,1475,"2 Car, plus Golf Car Garage",,28.78813333,-82.05107457,A,P,,244238
S140V.104,3752 CAUSEY CT,The Village of Hammock at Fenney,Sumter,Basswood,379000,3,2,1419,2 Car Garage,,28.78778197,-82.05124629,A,P,,244239
S626.26,3524 SMEDLEY RD,The Village of Hammock at Fenney,Sumter,Charlotte,414000,3,2,1492,2 Car Garage,,28.79656922,-82.0448333,A,P,,244848
S626.31,3502 SMEDLEY RD,The Village of Hammock at Fenney,Sumter,Charlotte,377711,3,2,1492,2 Car Garage,,28.79660231,-82.04409832,A,P,,245521
S627.14,5588 SWALLOWTAIL TER,The Village of Hammock at Fenney,Sumter,Emerald,344500,2,2,1266,"1 Car, plus Golf Car Garage",,28.79767872,-82.0475862,A,P,,245405
S628.8,3705 SUGARBERRY LN,The Village of Hammock at Fenney,Sumter,Arlington,429900,3,2,1633,2 Car Garage,,28.79419514,-82.04991101,A,P,,244775
S628.20,5760 MARROT TER,The Village of Hammock at Fenney,Sumter,Charlotte,459900,3,2,1492,2 Car Garage,,28.79354346,-82.05112471,A,P,,245297
S629.20,5526 COTTRELL CT,The Village of Hammock at Fenney,Sumter,Arlington,614000,3,2,1633,2 Car Garage,,28.79912013,-82.04624365,A,P,,246140
S629.21,5530 COTTRELL CT,The Village of Hammock at Fenney,Sumter,Charlotte,499000,3,2,1492,2 Car Garage,,28.7989846,-82.04624392,A,P,,246183
S138V.62,3817 MIRAGALIA LN,The Village of Hammock at Fenney,Sumter,Topaz,295000,2,2,1203,2 Car Garage,,28.79177317,-82.05300894,A,P,,244274
