ULIKey,Address,Village,County,Model,Price,Bedrooms,Baths,SquareFeet,Garage,Pool,Latitude,Longitude,Status,SaleType,YouTubeVideoId,VLSNumber,OwnerName
S688.15,419 CAMBIO CT,The Village de La Vista,Sumter,Las Brisas,369000,2,2,1080,"1 Car, plus Golf Car Garage",,28.92500122,-81.96302696,A,P,lGJbezCkItY,249989,
M54.155,16837 SE 86TH ALBANY AVE,The Village of Briar Meadow,Marion,Hibiscus,414900,3,2,2027,2 Car Garage,,28.97693837,-82.00982572,A,P,,248402,
S72.37,1966 HARTFORD PATH,The Village of Bridgeport at Lake Miona,Sumter,Chatham,1175000,3,2,3232,2 Car Garage,Swimming Pool,28.91075414,-82.00133942,A,P,,248062,
S715.11,2595 DARTFORD TER,The Village of Hadley,Sumter,Stoneybrook,524000,3,2,1602,"1 Car, plus Golf Car Garage",,28.87040264,-81.95352561,A,P,TSP73alv9LQ,248165,
L44V.34,1687 COLLEEN CT,The Village of Newell,Lake,Whip-Poor-Will,499555,3,2,1477,"2 Car, plus Golf Car Garage",,28.77179614,-81.9423944,A,P,,250183,
