ULIKey,Address,Village,County,Model,Price,Bedrooms,Baths,SquareFeet,Garage,Pool,Latitude,Longitude,Status,SaleType,YouTubeVideoId,VLSNumber
S601.24,1627 CAMPOS DR,The Village Alhambra,Sumter,Colony,259500,2,2,1121,"1 Car, plus Golf Car Garage",,28.95430864,-81.98951979,A,P,,249190
S24.17,2528 BOTELLO AVE,The Village Alhambra,Sumter,Austin,339000,2,2,1144,"1 Car, plus Golf Car Garage",,28.95248656,-81.99181568,A,P,,249706
S31.114,2724 BENAVIDES DR,The Village Alhambra,Sumter,Stetson III,334000,3,2,1527,2 Car Garage,,28.95457922,-81.99679195,A,P,,249848
S31.180,2735 PRIVADA DR,The Village Alhambra,Sumter,Stetson III,339900,3,2,1527,2 Car Garage,,28.95427754,-81.9974991,A,P,7apEkVYb5e8,250248
L7.1108,1534 W SCHWARTZ BLVD,The Village of Country Club Hills,Lake,Manufactured Home,245000,2,2,1118,,,28.95294239,-81.951816,A,P,,249250
L7.1134,1503 W SCHWARTZ BLVD,The Village of Country Club Hills,Lake,Manufactured Home,219900,2,2,1144,,,28.95202273,-81.94934863,A,P,,250555
L7.1177,1604 KILEY CT,The Village of Country Club Hills,Lake,Manufactured Home,279900,2,2,1456,,,28.95195401,-81.94740227,A,P,,249965
L7.1211,1610 LAUREN LN,The Village of Country Club Hills,Lake,Manufactured Home,209900,2,2,1446,,,28.95429304,-81.95111179,A,P,,249932
L7.1412,1732 W SCHWARTZ BLVD,The Village of Country Club Hills,Lake,El Paso,299900,2,2,1105,,,28.95761121,-81.95058017,A,P,,249885
L8.1575,1736 MAGNOLIA AVE,The Village of Country Club Hills,Lake,RANCH,279900,2,2,1121,"1 Car, plus Golf Car Garage",,28.95716704,-81.94527661,A,P,,250266
L8.1668,714 ORCHID ST,The Village of Country Club Hills,Lake,Manufactured Home,299000,2,2,1352,,,28.95821793,-81.93856503,A,P,,250342
L8.1698,819 ORCHID ST,The Village of Country Club Hills,Lake,Manufactured Home,179700,2,2,1352,,,28.95798078,-81.94217847,A,P,,250303
L8.1699,1802 DAFFODILL LN,The Village of Country Club Hills,Lake,Alameda,225000,2,1,926,"1 Car, plus Golf Car Garage",,28.95798206,-81.94256952,A,P,,250135
L8.1817,1826 E SCHWARTZ BLVD,The Village of Country Club Hills,Lake,Manufactured Home,169900,2,2,1092,,,28.95937795,-81.93705855,A,P,,249818
L8.1874,1838 W SCHWARTZ BLVD,The Village of Country Club Hills,Lake,Manufactured Home,274900,2,2,1139,"1 Car, plus Golf Car Garage",,28.95893526,-81.94321003,A,P,,250372
L8.1905,1827 W SCHWARTZ BLVD,The Village of Country Club Hills,Lake,Manufactured Home,149900,2,1.5,936,,,28.95988504,-81.94414958,A,P,,250288
L9.2578,1732 MYRTLE BEACH DR,The Village of Country Club Hills,Lake,Manufactured Home,179900,2,1,1096,,,28.95597423,-81.94160946,A,P,,248506
L10.2158,1528 E SCHWARTZ BLVD,The Village of Country Club Hills,Lake,Corpus Christi,312000,2,2,1248,2 Car Garage,,28.95251123,-81.93736633,A,P,,249568
L10.2172,1614 E SCHWARTZ BLVD,The Village of Country Club Hills,Lake,Cedar Key,315000,2,2,1248,2 Car Garage,,28.95474129,-81.93591495,A,P,,249862
L10.2266,1701 PALM AIRE DR,The Village of Country Club Hills,Lake,Manufactured Home,226990,2,2,1352,,,28.95574082,-81.93832095,A,P,9-rt5J71Nbk,249243
L10.2406,1528 DORAL CIR,The Village of Country Club Hills,Lake,Manufactured Home,184900,2,2,1243,,,28.95321865,-81.94081861,A,P,,250349
L11.2760,602 SAINT ANDREWS CIR,The Village of Country Club Hills,Lake,Site Built,424900,2,2,1394,3 Car Garage,Swimming Pool,28.95257942,-81.93321777,A,P,,250050
L11.2819,1601 PINEHURST DR,The Village of Country Club Hills,Lake,Manufactured Home,239900,2,2,1688,,,28.95256409,-81.93614947,A,P,,249239
L13.3323,1423 W SCHWARTZ BLVD,The Village of Country Club Hills,Lake,Corpus Christi,309900,2,2,1455,2 Car Garage,,28.95104495,-81.95182309,A,P,,249673
L13.3382,1117 W BOONE CT,The Village of Country Club Hills,Lake,Corpus Christi,279900,2,2,1248,2 Car Garage,,28.95167761,-81.95137607,A,P,,249789
L13.3400,1124 PARADISE DR,The Village of Country Club Hills,Lake,Daytona,229900,2,2,1040,,,28.9519248,-81.95212653,A,P,,250099
S14.31,625 SAN MARINO DR,The Village de La Vista,Sumter,Catalina III,387711,3,2,1587,2 Car Garage,,28.93028314,-81.9626109,A,P,,247007
S14.35,617 SAN MARINO DR,The Village de La Vista,Sumter,Vera Cruz,422000,3,2,1864,2 Car Garage,,28.92993923,-81.96197659,A,P,,248521
S15.51,409 ALDAMA AVE,The Village de La Vista,Sumter,Sedona III,399316,3,2,1477,2 Car Garage,Swimming Pool,28.9248755,-81.96774318,A,P,,249810
S33.20,1413 OAK FOREST DR,The Village of Glenbrook,Sumter,Carolina III,344000,3,2,1572,2 Car Garage,,28.94822134,-82.00146623,A,P,,249873
S33.231,3160 HILLSIDE LN,The Village of Glenbrook,Sumter,Bradford,789900,3,2,2044,2 Car Garage,Swimming Pool,28.94601195,-82.00601749,A,P,,250315
S37.107,1252 NILES CT,The Village of Glenbrook,Sumter,Flagler,418999,3,2,2044,2 Car Garage,,28.94399122,-82.00822819,A,P,,248442
S37.154,1288 DEERFIELD LN,The Village of Glenbrook,Sumter,Madison,416900,2,2,1894,2 Car Garage,,28.94572032,-82.00907059,A,P,,250361
S9.49,1162 SAN JUAN DR,The Village Hacienda,Sumter,Sedona III,460000,3,2,1458,2 Car Garage,,28.94342447,-81.95733999,A,P,HRW6364OhEc,250267
S9.141,1214 SAN BERNADINO WAY,The Village Hacienda,Sumter,La Costa,350000,2,2,1613,2 Car Garage,,28.94435599,-81.95997847,A,P,,249881
S844.14,1227 CADIZ TER,The Village Hacienda,Sumter,Charlotte,575000,3,2,1497,2 Car Garage,,28.94393464,-81.96294253,A,P,,248973
S844.17,1239 CADIZ TER,The Village Hacienda,Sumter,Winslow-C,799900,3,2,1969,"2 Car, plus Golf Car Garage",Swimming Pool,28.94421252,-81.96262068,A,P,,249392
S844.20,1238 CADIZ TER,The Village Hacienda,Sumter,Arlington,744900,3,2,1664,2 Car Garage,Swimming Pool,28.94440627,-81.96308244,A,P,,249721
L22.5993,522 LOMA PASEO DR,The Village La Reynalda,Lake,Belmont,564000,3,2,1959,2 Car Garage,,28.92778546,-81.94230916,A,P,v-pehs0Wj1g,249297
L22.6066,918 VENTURA DR,The Village La Reynalda,Lake,Catalina III,369500,3,2,1812,"2 Car, plus Golf Car Garage",,28.92531612,-81.94386163,A,P,,249396
S634.112,2968 FAIR OAK TER,The Village of Belle Aire,Sumter,Foxglove,360000,3,2,1407,"1 Car, plus Golf Car Garage",,28.95365431,-82.00040428,A,P,,250439
S609.100,3033 MACON CT,The Village of Belle Aire,Sumter,Belvidere,495000,3,2,1576,"1 Car, plus Golf Car Garage",Swimming Pool,28.9594043,-82.00407266,A,P,k8gUBBWucjg,250328
S40.16,1581 NORFOLK AVE,The Village of Belle Aire,Sumter,Volusia,939000,3,2,1909,2 Car Garage,,28.95236732,-82.00784544,A,P,0l34ZI6sxFw,250227
S40.17,1573 NORFOLK AVE,The Village of Belle Aire,Sumter,Volusia,919000,3,2,1871,2 Car Garage,Swimming Pool,28.95214253,-82.00790148,A,P,IuouIJlI89I,250043
S41.93,3436 RICHMOND DR,The Village of Belle Aire,Sumter,Austin,299500,2,2,1148,"1 Car, plus Golf Car Garage",,28.95785292,-82.01366869,A,P,,248147
S41.104,3366 RESTON DR,The Village of Belle Aire,Sumter,Stetson III,399000,3,2,1392,2 Car Garage,Swimming Pool,28.95633513,-82.01112102,A,P,UdPnDpwetPk,248523
S41.140,3264 ROANOKE ST,The Village of Belle Aire,Sumter,Stetson III,350000,3,2,1392,2 Car Garage,,28.95606491,-82.00915286,A,P,,250486
S41.206,1837 NAPLES PL,The Village of Belle Aire,Sumter,Stetson III,329900,3,2,1527,2 Car Garage,,28.95935562,-82.01271293,A,P,,250186
S612.81,3565 ROANOKE ST,The Village of Belle Aire,Sumter,Colony,259000,2,2,1156,"1 Car, plus Golf Car Garage",,28.95726174,-82.0137021,A,P,,249759
L17.5432,1117 SAN REMO LN,The Village Mira Mesa,Lake,Corpus Christi,269900,2,2,1383,2 Car Garage,,28.92878488,-81.94976682,A,P,,250568
L17.5577,518 ALCAZAR CT,The Village Mira Mesa,Lake,Corpus Christi,299900,2,2,1383,2 Car Garage,,28.92710541,-81.94849321,A,P,,250324
L19.5930,309 CHULA VISTA AVE,The Village Mira Mesa,Lake,Modified Designer,355000,3,2,1550,2 Car Garage,,28.92153634,-81.94534103,A,P,,250062
L1.48,1027 ALOHA WAY,The Village of Orange Blossom Gardens,Lake,Manufactured Home,269900,2,2,1388,"1 Car, plus Golf Car Garage",,28.94660572,-81.94724296,A,P,,250430
L1.60,1311 PARADISE DR,The Village of Orange Blossom Gardens,Lake,Manufactured Home,278900,2,2,1138,,,28.94517897,-81.94826839,A,P,,249878
L13.3260,1411 LINDSEY LN,The Village of Orange Blossom Gardens,Lake,Manufactured Home,219000,2,2,1296,,,28.9486768,-81.94636602,A,P,,250494
S35.78,3243 MANSFIELD ST,The Village of Polo Ridge,Sumter,About Time,299711,2,2,1156,"1 Car, plus Golf Car Garage",,28.93091054,-82.00917612,A,P,,249278
S35.130,3224 ROSWELL RD,The Village of Polo Ridge,Sumter,Austin,324750,2,2,1148,"1 Car, plus Golf Car Garage",,28.93180776,-82.0082687,A,P,,250416
S35.195,754 EVELYN DR,The Village of Polo Ridge,Sumter,Maverick III,308500,3,2,1203,"1 Car, plus Golf Car Garage",,28.93321597,-82.00980701,A,P,ssnhyUZsSKc,250180
S36.161,3147 MANSFIELD ST,The Village of Polo Ridge,Sumter,Hillsborough,425000,3,2,2022,"2 Car, plus Golf Car Garage",,28.92989114,-82.00621319,A,P,,248701
S36.181,816 ARCHER AVE,The Village of Polo Ridge,Sumter,Hillsborough,429900,3,2,1892,2 Car Garage,,28.93493788,-82.00246077,A,P,,250386
S608.62,3121 ARCHER AVE,The Village of Polo Ridge,Sumter,Richmond,519900,2,2,1316,"1 Car, plus Golf Car Garage",,28.93670083,-82.00471188,A,P,,250132
S3.33,917 RAMOS DR,The Village Rio Grande,Sumter,Santa Domingo,649000,3,2,2082,"2 Car, plus Golf Car Garage",,28.93645885,-81.96230802,A,P,-WIxBZZENUM,249316
S685.14,1305 SANTA MARIA AVE,The Village Rio Grande,Sumter,El Cancun,449500,2,2,1686,2 Car Garage,,28.93791869,-81.95595746,A,P,,249322
S686.40,628 DELGADO AVE,The Village Rio Grande,Sumter,Baja,280000,2,2,1094,"1 Car, plus Golf Car Garage",,28.93066556,-81.95522115,A,P,,249785
S4.258,1403 CRUZ CT,The Village Rio Ponderosa,Sumter,Maverick III,279000,3,2,1122,"1 Car, plus Golf Car Garage",,28.92288239,-81.95820916,A,P,,250584
S694.13,880 TREVINO TER,The Village Rio Ranchero,Sumter,Mazatlan,300000,2,2,1102,"1 Car, plus Golf Car Garage",,28.93546812,-81.96479862,A,P,,250482
S29.35,2417 TAMARINDO DR,The Village Santiago,Sumter,Annandale,530000,3,2,1540,2 Car Garage,,28.95006568,-81.98545888,A,P,,250314
S30.137,1419 ARREDONDO DR,The Village Santiago,Sumter,Carolina III,345000,3,2,1527,2 Car Garage,,28.95121458,-81.99326888,A,P,,249429
S606.33,1102 LIENDO LN,The Village Santiago,Sumter,San Lucas,359000,2,2,1146,"1 Car, plus Golf Car Garage",,28.9420383,-81.99863343,A,P,s16RcpXZVMg,250260
S606.47,1130 SANTA CRUZ DR,The Village Santiago,Sumter,Las Brisas,274800,2,2,1079,"1 Car, plus Golf Car Garage",,28.94296588,-81.99976047,A,P,,250470
S606.66,1221 SANTA CRUZ DR,The Village Santiago,Sumter,San Lucas,290000,2,2,1174,"1 Car, plus Golf Car Garage",,28.94510735,-81.9996752,A,P,,249157
S605.79,2801 SALAMANCA ST,The Village Santiago,Sumter,Colony,269000,2,2,1156,"1 Car, plus Golf Car Garage",,28.94354315,-81.99615634,A,P,,250414
S607.10,1444 AZTECA LOOP,The Village Santiago,Sumter,Summerland,259000,2,2,1179,"1 Car, plus Golf Car Garage",,28.95077845,-81.99926607,A,P,,249859
S607.97,1402 CONCHAS DR,The Village Santiago,Sumter,Summerland,344000,2,2,1146,,,28.94916913,-81.99966564,A,P,,250249
S604.1,1450 ALMANZA DR,The Village Santo Domingo,Sumter,Las Brisas,269000,2,2,1224,"1 Car, plus Golf Car Garage",,28.95067923,-81.9757544,A,P,BDHfXu-3ds8,247779
S600.93,1403 EMILIO CT,The Village Santo Domingo,Sumter,Colony,249000,2,2,1121,"1 Car, plus Golf Car Garage",,28.94795337,-81.9778209,A,P,,248770
S19.81,2001 CRISTO RD,The Village Santo Domingo,Sumter,Maverick,312500,2,2,1075,"1 Car, plus Golf Car Garage",,28.94609563,-81.97463781,A,P,,250350
S19.100,2014 CORDERO CT,The Village Santo Domingo,Sumter,Austin,289000,2,2,1148,"1 Car, plus Golf Car Garage",,28.94588764,-81.97595442,A,P,,250489
S19.136,2003 CLAUDIO LN,The Village Santo Domingo,Sumter,Austin,305000,2,2,1076,"1 Car, plus Golf Car Garage",,28.94706369,-81.97568081,A,P,,250078
S20.68,1135 SALIDO AVE,The Village Santo Domingo,Sumter,Cancun,359000,3,2,1625,2 Car Garage,,28.94298512,-81.97783277,A,P,yDOWb2gELF8,249882
S22.240,1211 EL ESPARZA LN,The Village Santo Domingo,Sumter,Sedona III,312000,3,2,1437,2 Car Garage,,28.94528373,-81.97236049,A,P,,250441
S23.180,1511 AQUINO LN,The Village Santo Domingo,Sumter,Sedona III,325000,3,2,1437,2 Car Garage,,28.95152825,-81.98113985,A,P,,249809
S25.67,1728 ENRIQUE DR,The Village Santo Domingo,Sumter,La Paloma III,699000,3,2,2138,2 Car Garage,Swimming Pool,28.95058416,-81.96727431,A,P,,248876
S26.91,1913 AUGUSTINE DR,The Village Santo Domingo,Sumter,Saratoga III,339900,3,2,1451,2 Car Garage,,28.94814556,-81.97189726,A,P,,250122
S26.143,1308 GALINDO PL,The Village Santo Domingo,Sumter,Cancun,429000,3,2,1647,2 Car Garage,,28.94809652,-81.96855802,A,P,,250115
L78.49,108 CHERRY BLOSSOM LN,Spring Arbor - Family Neighborhood,Lake,Houston,349000,4,2,1754,2 Car Garage,,28.91703453,-81.95352848,A,P,,249926
L3.95,916 BEECHWOOD AVE,The Village of Silver Lake,Lake,Manufactured Home,229900,4,2,1344,,,28.9416934,-81.9429925,A,P,,249906
L3.238,832 SILVER OAK AVE,The Village of Silver Lake,Lake,Manufactured Home,219500,2,2,1567,,,28.94640634,-81.94130407,A,P,,249719
L3.290,818 BEECHWOOD AVE,The Village of Silver Lake,Lake,Paradise Found,269900,2,2,1092,"1 Car, plus Golf Car Garage",,28.94289792,-81.94137391,A,P,,249792
L4.425,921 TARRSON BLVD,The Village of Silver Lake,Lake,Manufactured Home,239900,2,2,1284,,,28.9426158,-81.94488413,A,P,,250364
L5.691,1112 DUSTIN DR,The Village of Silver Lake,Lake,Sandpiper,309995,3,2,1426,"1 Car, plus Golf Car Garage",,28.94250612,-81.93757252,A,P,,250255
L5.718,1107 DUSTIN DR,The Village of Silver Lake,Lake,Manufactured Home,160000,2,2,1092,,,28.94200528,-81.93713383,A,P,,250391
L6.734,547 JASON DR,The Village of Silver Lake,Lake,Manufactured Home,204000,2,2,1056,,,28.94139274,-81.93442456,A,P,,250081
L6.820,1009 MATTHEW AVE,The Village of Silver Lake,Lake,Manufactured Home,159000,2,2,768,,,28.93927791,-81.93640481,A,P,,250528
L6.871,609 TARRSON BLVD,The Village of Silver Lake,Lake,Manufactured Home,209900,2,2,1295,,,28.93872058,-81.93488886,A,P,,249791
L6.911,508 JASON DR,The Village of Silver Lake,Lake,Manufactured Home,209900,2,2,884,,,28.94100893,-81.9309063,A,P,,250223
L6.1048,1010 KELSEA CIR,The Village of Silver Lake,Lake,Manufactured Home,199900,3,2,1284,,,28.94002029,-81.93084426,A,P,,249689
L6.1065,1006 PARKER PL,The Village of Silver Lake,Lake,Manufactured Home,217400,2,2,1144,,,28.94001347,-81.92995654,A,P,,250221
L12.3069,539 RAINBOW BLVD,The Village of Silver Lake,Lake,Manufactured Home,209900,2,2,1448,,,28.94205736,-81.93499502,A,P,,250334
L12.3070,537 RAINBOW BLVD,The Village of Silver Lake,Lake,Manufactured Home,205000,2,2,1478,,,28.94205636,-81.93478501,A,P,,250218
L12.3248,527 BONITA DR,The Village of Silver Lake,Lake,Coronado,289000,2,2,1277,2 Car Garage,,28.94268866,-81.93512782,A,P,,248886
S17.2,219 CARRERA DR,The Village Tierra del Sol,Sumter,Sierra,685000,3,2,1831,2 Car Garage,,28.9221073,-81.97012535,A,P,,249194
M53.66,17507 SE 88TH COVINGTON CIR,The Village of Springdale,Marion,Natchez,649000,3,2,2593,"2 Car, plus Golf Car Garage",,28.96662066,-82.00646314,A,P,oIskgTrtDZg,250212
M53.80,17640 SE 86TH BRIARCLIFFE CT,The Village of Springdale,Marion,Natchez,749000,3,2,2293,3 + Car Garage,,28.96572722,-82.00954985,A,P,1MlRF3Zj02E,249505
M53.110,17574 SE 88TH COVINGTON CIR,The Village of Springdale,Marion,Natchez,885000,3,2,2293,3 Car Garage>..<3 + Car Garage,,28.96469605,-82.00842498,A,P,,250474
M46.44,17609 SE 90TH CLEMSON CIR,The Village of Springdale,Marion,Hibiscus,379500,3,2,1917,,,28.96409895,-82.0056835,A,P,,248942
M48.1,17608 SE 92ND GRANTHAM TER,The Village of Springdale,Marion,Whispering Pine,365900,3,2,1500,2 Car Garage,,28.96590662,-82.00028247,A,P,,250417
M214.98,17831 SE 91ST GAYLARK AVE,The Village of Springdale,Marion,Marathon,289999,2,2,1283,"1 Car, plus Golf Car Garage",,28.96251519,-82.00164767,A,P,,249949
M50.38,9345 SE 171ST LE FLORE LN,The Village of Woodbury,Marion,Maple,319700,3,2,1446,2 Car Garage,,28.97264012,-81.99828732,A,P,,250384
M52.37,9595 SE 171ST ARGYLL ST,The Village of Woodbury,Marion,Amarillo,399900,3,2,1392,2 Car Garage,,28.97535384,-81.99420164,A,P,DFCy8NfAFLc,249620
M52.40,9565 SE 171ST ARGYLL ST,The Village of Woodbury,Marion,Amarillo,325000,3,2,1392,2 Car Garage,,28.97535459,-81.99476363,A,P,,249382
M52.179,9621 SE 168TH MAPLESONG LN,The Village of Woodbury,Marion,Amarillo,312000,3,2,1392,2 Car Garage,,28.97672524,-81.99363667,A,P,,249912
M232.68,16806 SE 91ST PHILLIPS CT,The Village of Woodbury,Marion,Winslow,465000,3,2,1714,"1 Car, plus Golf Car Garage",,28.97753484,-82.00270885,A,P,lPTEIB-FBHY,248541
M44.192,17964 SE 88TH GRIMBALL AVE,The Village of Piedmont,Marion,Whispering Pine,525000,2,2,1684,2 Car Garage,,28.96047352,-82.00733306,A,P,,250518
M217.42,17448 SE 82ND ROSLYN CT,The Village of Piedmont,Marion,Colony,254800,2,2,1179,"1 Car, plus Golf Car Garage",,28.9681624,-82.01655604,A,P,,249336
M217.62,17435 SE 82ND ROSLYN CT,The Village of Piedmont,Marion,Colony,279000,2,2,1163,"1 Car, plus Golf Car Garage",,28.96839744,-82.01617978,A,P,,250200
M221.52,17463 SE 81ST NEWBERRY CT,The Village of Chatham,Marion,Colony,259000,2,2,1163,"1 Car, plus Golf Car Garage",,28.96801904,-82.0175457,A,P,,249501
M59.29,8109 SE 174TH BELHAVEN LOOP,The Village of Chatham,Marion,Amarillo,379600,3,2,1623,2 Car Garage,,28.96724149,-82.02030351,A,P,,250136
M59.72,7999 SE 174TH BELHAVEN LOOP,The Village of Chatham,Marion,Amarillo,334900,3,2,1392,2 Car Garage,,28.9690898,-82.01893226,A,P,,249680
M60.9,17346 SE 80TH BILTMORE AVE,The Village of Chatham,Marion,Dogwood,459900,3,2,1666,2 Car Garage,,28.96989507,-82.02080091,A,P,,249782
M62.220,17430 SE 72ND DEER RUN AVE,The Village of Chatham,Marion,Hibiscus,424900,3,2,1981,2 Car Garage,,28.96858801,-82.03344229,A,P,,250204
M63.47,7100 SE 172ND HAZELWOOD LOOP,The Village of Chatham,Marion,Live Oak,977711,3,2,2540,"2 Car, plus Golf Car Garage",Swimming Pool,28.97275216,-82.03153754,A,P,,250149
M222.54,17382 SE 77TH HELMSDALE CT,The Village of Chatham,Marion,Cabot Cove,229850,2,2,1198,,,28.96899682,-82.02446063,A,P,a7yKws8RH6I,250459
M222.83,17379 SE 78TH HARMONY CIR,The Village of Chatham,Marion,Cabot Cove,269800,2,2,1175,"1 Car, plus Golf Car Garage",,28.96871706,-82.0233737,A,P,,249763
M222.133,7871 SE 173RD PANORAMA PL,The Village of Chatham,Marion,Vineyard,199800,2,1,1071,"1 Car, plus Golf Car Garage",,28.96953898,-82.02257015,A,P,,250396
M57.20,16846 SE 80TH BELLAVISTA CIR,The Village of Calumet Grove,Marion,Whispering Pine,549900,3,2,1906,2 Car Garage,,28.97923961,-82.02101376,A,P,,248740
M225.78,7613 SE 170TH LONGVIEW LN,The Village of Calumet Grove,Marion,Woodlawn,340000,2,2,1158,"1 Car, plus Golf Car Garage",,28.97400139,-82.02644826,A,P,,250569
M227.33,17145 SE 76TH BOXBURY CT,The Village of Calumet Grove,Marion,Marathon,274900,2,2,1168,"1 Car, plus Golf Car Garage",,28.97330705,-82.02598213,A,P,,247826
M55.24,17278 SE 85TH WILLOWICK CIR,The Village of Briar Meadow,Marion,Live Oak,649897,3,2,2084,"2 Car, plus Golf Car Garage",,28.97028942,-82.00810307,A,P,arDT8ah_V1M,250059
M229.15,8712 SE 166TH BIRCHBROOK LOOP,The Village of Briar Meadow,Marion,Foxglove,399987,3,2,1419,"1 Car, plus Golf Car Garage",,28.97929789,-82.00914107,A,P,,249844
M228.3,16595 SE 85TH LANGHAM CT,The Village of Briar Meadow,Marion,Grantham,435000,3,2,1670,"1 Car, plus Golf Car Garage",,28.98065797,-82.01127596,A,P,,249541
M218.1,17339 SE 84TH FOXGROVE AVE,The Village of Briar Meadow,Marion,Stoneybrook,1250000,3,3,3693,2 Car Garage,Swimming Pool,28.97005638,-82.01346838,A,P,,250140
S67.98,982 KINGMONT TER,The Village of Summerhill,Sumter,Amarillo,339900,3,2,1392,2 Car Garage,,28.93771745,-82.00939317,A,P,,250202
S67.162,3722 AUBURNDALE AVE,The Village of Summerhill,Sumter,Banyan,429900,3,2,1668,2 Car Garage,,28.93952544,-82.00822206,A,P,,250137
S67.278,3295 CANDLEBROOK ST,The Village of Summerhill,Sumter,Corpus Christi,255000,3,2,1326,"1 Car, plus Golf Car Garage",,28.9398765,-82.00947179,A,P,,249904
S68.26,1088 BLYTHE WAY,The Village of Summerhill,Sumter,Amarillo,319000,3,2,1392,2 Car Garage,,28.94054344,-82.01273888,A,P,,248915
S68.77,3507 AUBURNDALE AVE,The Village of Summerhill,Sumter,Laredo,279000,2,2,1100,"1 Car, plus Golf Car Garage",,28.94115043,-82.01562943,A,P,,249084
S633.22,3544 AMELIA AVE,The Village of Summerhill,Sumter,Colony,235000,2,2,1156,"1 Car, plus Golf Car Garage",,28.93349033,-82.01584186,A,P,,249053
S73.39,848 CASTLEBERRY CIR,The Village of Bonnybrook,Sumter,Gardenia,750000,3,2,2100,"2 Car, plus Golf Car Garage",,28.91628259,-82.00095499,A,P,mEN6CEwQzRM,249657
S74.59,2184 WILLOW GROVE WAY,The Village of Bonnybrook,Sumter,Gardenia,989750,3,2,1973,"2 Car, plus Golf Car Garage",Swimming Pool,28.92011036,-82.00774366,A,P,ka7Oqyeu1B8,247295
S75.28,2206 HIGH POINT DR,The Village of Bonnybrook,Sumter,Royal Palm,449000,3,2,2015,2 Car Garage,,28.9166614,-82.0083447,A,P,,249863
S75.106,2459 AMBLER CIR,The Village of Bonnybrook,Sumter,Modified Designer,449000,3,2,1820,2 Car Garage,,28.9194112,-82.01138799,A,P,CBVFkcvXy8M,249961
S641.31,2027 AVERY PL,The Village of Bonnybrook,Sumter,Foxglove,354000,3,2,1407,"1 Car, plus Golf Car Garage",,28.92128509,-82.00329123,A,P,,249847
S236.6,2494 GREENHILL TRL,The Village of Belvedere,Sumter,Bonita,389900,3,2,1423,"1 Car, plus Golf Car Garage",,28.92256161,-82.01618061,A,P,,249967
S236.37,412 CALVERT TER,The Village of Belvedere,Sumter,Marathon,289900,2,2,1148,"1 Car, plus Golf Car Garage",,28.92333613,-82.01637576,A,P,,250331
S76.39,560 SMITHFIELD PL,The Village of Belvedere,Sumter,Oleander,415000,3,2,1667,"2 Car, plus Golf Car Garage",,28.91843345,-82.01435597,A,P,,250258
S79.90,546 FOXFIELD PATH,The Village of Belvedere,Sumter,Camellia,535000,3,2,1875,"2 Car, plus Golf Car Garage",,28.92017249,-82.02705062,A,P,dGgJQOarkFQ,248520
S80.66,649 RAVENEL CT,The Village of Belvedere,Sumter,Bougainvillea,373000,3,2,1392,2 Car Garage,,28.91757538,-82.02242141,A,P,,249969
S242.65,2614 ASCOT LOOP,The Village of Belvedere,Sumter,Colony,275000,2,2,1156,"1 Car, plus Golf Car Garage",,28.92171617,-82.01958162,A,P,,250445
S644.9,433 CANTERBURY CT,The Village of Belvedere,Sumter,Cabot Cove,305000,2,2,1188,"1 Car, plus Golf Car Garage",,28.92266933,-82.02067572,A,P,,250559
S72.98,1993 HARTFORD PATH,The Village of Bridgeport at Lake Miona,Sumter,Natchez,874900,3,2,2616,"2 Car, plus Golf Car Garage",Swimming Pool,28.90991623,-82.0020456,A,P,5nhvKYqBzg4,247210
S102.2,1694 BLACK LAKE DR,The Village of Bridgeport at Lake Miona,Sumter,Chatham,2145000,3,2,3150,,Swimming Pool,28.90787979,-81.994134,A,P,tkW-OKri0aE,249895
S70.37,405 KINGSTON WAY,The Village of Winifred,Sumter,Oleander,449000,3,2,1647,"2 Car, plus Golf Car Garage",,28.92361672,-82.00254104,A,P,,249249
S70.287,628 SHALIMAR ST,The Village of Winifred,Sumter,Bougainvillea,369000,3,2,1416,2 Car Garage,,28.91819998,-81.99652062,A,P,,249324
S71.192,1787 WINTHROP TER,The Village of Winifred,Sumter,Jasmine,379000,3,2,1472,2 Car Garage,,28.91496442,-81.9966853,A,P,CIlzt_ztJ7M,250185
S71.227,740 WINIFRED WAY,The Village of Winifred,Sumter,Cypress,459000,3,2,1861,2 Car Garage,,28.91555208,-81.99513508,A,P,,250238
S649.57,2344 RILEY RD,The Village of Ashland,Sumter,Colony,309000,2,2,1156,"1 Car, plus Golf Car Garage",,28.90934751,-82.01201432,A,P,,250585
S82.57,2118 KAYLEE DR,The Village of Ashland,Sumter,Gardenia,475000,3,2,2114,,,28.91578781,-82.00451459,A,P,,249114
S83.127,921 BARRYMOORE LOOP,The Village of Ashland,Sumter,Amarillo,389000,3,2,1572,2 Car Garage,,28.90943418,-82.00524605,A,P,,249797
S648.3,2134 JASPER WAY,The Village of Ashland,Sumter,Anna Maria,498800,3,2,1605,"1 Car, plus Golf Car Garage",,28.91268933,-82.00609118,A,P,SJ4vVak4qL4,250383
S648.17,2068 BURROUGHS RD,The Village of Ashland,Sumter,Anna Maria,397000,3,2,1605,"1 Car, plus Golf Car Garage",,28.91184021,-82.00462257,A,P,,249647
S648.42,873 CARRABELLA TER,The Village of Ashland,Sumter,Amelia,314900,2,2,1129,"1 Car, plus Golf Car Garage",,28.91205274,-82.00415496,A,P,,250038
S651.19,2739 COLLINGTON DR,The Village of Lynnhaven,Sumter,Colony,260000,2,2,1156,"1 Car, plus Golf Car Garage",,28.91446861,-82.02328805,A,P,,249953
S651.20,2743 COLLINGTON DR,The Village of Lynnhaven,Sumter,Colony,279900,2,2,1156,"1 Car, plus Golf Car Garage",,28.91447015,-82.02342436,A,P,,249724
S651.53,2689 CRAVEN WAY,The Village of Lynnhaven,Sumter,Colony,299000,2,2,1156,"1 Car, plus Golf Car Garage",,28.91387823,-82.0216691,A,P,0S3VW6alrEo,250233
S652.69,2472 KINGSTREE PL,The Village of Lynnhaven,Sumter,Cabot Cove,279900,2,2,1188,"1 Car, plus Golf Car Garage",,28.90997716,-82.01555959,A,P,,250388
S91.115,1519 FENIMORE LN,The Village of Sunset Pointe,Sumter,Gardenia,629000,3,2,1927,2 Car Garage,Swimming Pool,28.89663699,-81.98933785,A,P,,249556
S92.77,1706 NELSON TER,The Village of Sunset Pointe,Sumter,Lantana,929900,3,2,2505,"2 Car, plus Golf Car Garage",Swimming Pool,28.89803291,-81.99456856,A,P,JJDUpgTzRl4,250413
S92.137,1578 OLAR CT,The Village of Sunset Pointe,Sumter,Cypress,475000,3,2,1944,"2 Car, plus Golf Car Garage",,28.89954108,-81.99102827,A,P,UNmqRl8Xo1Q,250275
S92.216,1768 LANDRUM LN,The Village of Sunset Pointe,Sumter,Birch,290000,2,2,1248,2 Car Garage,,28.89651529,-81.99615947,A,P,,249866
S99.7,2015 SOUTHFIELD DR,The Village of Poinciana,Sumter,Oleander,477000,3,2,1891,"2 Car, plus Golf Car Garage",,28.88440752,-81.99201033,A,P,YXsd1xMT8RY,249897
S100.83,1767 HAGOOD LOOP,The Village of Poinciana,Sumter,Jasmine,399000,3,2,1535,2 Car Garage,,28.89054513,-81.99427694,A,P,,249402
S660.22,2053 BONHAM LN,The Village of Poinciana,Sumter,Stoneybrook,589000,3,2,1612,"1 Car, plus Golf Car Garage",,28.88354872,-81.99021483,A,P,,249886
S660.34,2008 DORCHESTER AVE,The Village of Poinciana,Sumter,Woodlawn,319900,2,2,1123,"1 Car, plus Golf Car Garage",,28.88466859,-81.99164568,A,P,,248677
S96.16,1255 TRELLIS LN,The Village of Liberty Park,Sumter,Corpus Christi,399900,3,2,1240,"2 Car, plus Golf Car Garage",,28.88329848,-81.98246279,A,P,,249374
S97.57,1442 GREENVILLE WAY,The Village of Liberty Park,Sumter,Whispering Pine,364900,3,2,1496,2 Car Garage,,28.88183032,-81.98725899,A,P,,249111
S98.120,2287 JUDSON ST,The Village of Liberty Park,Sumter,Austin,339900,2,2,1142,"1 Car, plus Golf Car Garage",,28.87794168,-81.99037287,A,P,,250492
S653.32,1939 STAFFORD AVE,The Village of Liberty Park,Sumter,Colony,324711,2,2,1156,"1 Car, plus Golf Car Garage",,28.88633817,-81.98013315,A,P,,249639
S654.24,2011 THURMOND AVE,The Village of Liberty Park,Sumter,Colony,305000,2,2,1156,"1 Car, plus Golf Car Garage",,28.88454816,-81.9807524,A,P,,249930
S661.21,1398 CHESTERFIELD LN,The Village of Liberty Park,Sumter,Marathon,319900,2,2,1158,"1 Car, plus Golf Car Garage",,28.88275542,-81.9861789,A,P,,249091
S661.28,1399 GEORGIANA TER,The Village of Liberty Park,Sumter,Anna Maria,474900,3,2,1597,"1 Car, plus Golf Car Garage",Swimming Pool,28.88224472,-81.98583027,A,P,,248681
S662.7,1604 GIBBES WAY,The Village of Liberty Park,Sumter,Colony,289000,2,2,1156,"1 Car, plus Golf Car Garage",,28.87733591,-81.99177683,A,P,,249806
S106.43,1068 SAYLE ST,The Village of Virginia Trace,Sumter,Gardenia,849700,3,2,2251,2 Car Garage,,28.90329014,-81.97691582,A,P,XE1_x9cNCcA,249529
S106.76,1433 FOREST ACRES DR,The Village of Virginia Trace,Sumter,Gardenia,579000,3,2,1927,2 Car Garage,,28.90093656,-81.97320156,A,P,,249777
S109.106,1351 DUNCAN DR,The Village of Virginia Trace,Sumter,Gardenia,749000,3,2,2359,2 Car Garage,,28.89933289,-81.97049542,A,P,,249731
S663.49,1536 CONWAY CT,The Village of Virginia Trace,Sumter,Woodlawn,424900,2,2,1258,"1 Car, plus Golf Car Garage",,28.89617882,-81.97813098,A,P,,249770
S112.64,1262 PAGELAND WAY,The Village of Caroline,Sumter,Amarillo,339000,3,2,1392,2 Car Garage,,28.90288695,-81.9569205,A,P,,248944
S664.48,1285 CHESNEE PL,The Village of Caroline,Sumter,Cabot Cove,309000,2,2,1188,"1 Car, plus Golf Car Garage",,28.90239858,-81.95785805,A,P,,249963
S668.2,1117 ELIZABETH CT,The Village of Caroline,Sumter,Anna Maria,425000,3,2,1602,"1 Car, plus Golf Car Garage",,28.90606329,-81.96686076,A,P,,249527
S670.39,285 STARR LN,The Village of Caroline,Sumter,Colony,329800,2,2,1156,"1 Car, plus Golf Car Garage",,28.8957807,-81.95454175,A,P,,248989
S670.81,300 STARR LN,The Village of Caroline,Sumter,Colony,279000,2,2,1156,"1 Car, plus Golf Car Garage",,28.89543963,-81.95499539,A,P,,250402
S115.256,598 MALLORY HILL DR,The Village of Mallory Square,Sumter,Gardenia,489000,3,2,1927,2 Car Garage,,28.89752102,-81.96356028,A,P,,249547
S115.264,646 MALLORY HILL DR,The Village of Mallory Square,Sumter,Camellia,379000,3,2,1927,2 Car Garage,,28.89746956,-81.96508656,A,P,,250001
S115.320,647 MALLORY HILL DR,The Village of Mallory Square,Sumter,Jasmine,439000,3,2,1535,2 Car Garage,,28.89785599,-81.96503816,A,P,,249284
S116.84,456 TROY LOOP,The Village of Mallory Square,Sumter,Lantana,514000,3,2,2000,2 Car Garage,,28.89434332,-81.95975185,A,P,hitqzrHQ3Pc,249713
S675.61,507 RICHBURG ST,The Village of Mallory Square,Sumter,Anna Maria,429000,3,2,1611,2 Car Garage,,28.89886793,-81.96092857,A,P,,249357
S676.72,1089 SUMMERTON ST,The Village of Sabal Chase,Sumter,Beauregard,409900,2,2.5,1660,"1 Car, plus Golf Car Garage",,28.89276171,-81.97740748,A,P,,248918
S118.176,1679 DUFFY LOOP,The Village of Sabal Chase,Sumter,Camellia,429900,3,2,1927,,,28.89356733,-81.97006312,A,P,,250456
S120.80,1123 MAGRATH WAY,The Village of Sabal Chase,Sumter,Lantana,527500,3,2,2000,2 Car Garage,,28.89044129,-81.9782133,A,P,,250495
S120.81,1115 MAGRATH WAY,The Village of Sabal Chase,Sumter,Gardenia,459900,3,2,1927,2 Car Garage,,28.89039476,-81.97803334,A,P,RaB7p-c0WNk,250509
S701.12,1003 RIDGEVILLE RD,The Village of Sabal Chase,Sumter,Colony,282500,2,2,1156,"1 Car, plus Golf Car Garage",,28.89186524,-81.97520184,A,P,,250244
S122.328,707 CORDOVA CIR,The Village of Largo,Sumter,Bougainvillea,359000,3,2,1488,2 Car Garage,,28.8808066,-81.96806408,A,P,,249107
S123.79,1025 DENTSVILLE LN,The Village of Largo,Sumter,Somerset,549000,3,2,2047,2 Car Garage,,28.88632123,-81.9757873,A,P,qVoF2DZbnEc,250162
S123.88,1240 PENDLETON CIR,The Village of Largo,Sumter,Jasmine,408800,3,2,1532,2 Car Garage,,28.88497606,-81.97563553,A,P,2IwO3Q6E8JE,249850
S681.11,2138 CHERRY VALE PL,The Village of Tall Trees,Sumter,Beauregard,419000,2,2,1196,"1 Car, plus Golf Car Garage",Swimming Pool,28.92477952,-82.00663981,A,P,,250451
S681.56,2128 SMOAKS ST,The Village of Tall Trees,Sumter,Stoneybrook,414000,3,2,1612,"1 Car, plus Golf Car Garage",,28.92531342,-82.00626141,A,P,XeDiVI_wTxw,250434
S105.20,1092 RUSSELL LOOP,The Village of Bridgeport at Lake Sumter,Sumter,Modified Premier,1254000,3,2,2373,"2 Car, plus Golf Car Garage",,28.91386711,-81.97956606,A,P,NPbdiMPByDs,249650
S105.50,1265 RUSSELL LOOP,The Village of Bridgeport at Lake Sumter,Sumter,Natchez,895000,3,2,2353,"2 Car, plus Golf Car Garage",,28.91185791,-81.9823587,A,P,_Fl-jgTeR04,250322
S127.8,1693 BANBERRY RUN,The Village of Amelia,Sumter,Corpus Christi,333000,3,2,1240,"1 Car, plus Golf Car Garage",,28.8920602,-81.95927638,A,P,,249311
S127.233,1789 LISETTE WAY,The Village of Amelia,Sumter,Amarillo,354995,3,2,1392,"2 Car, plus Golf Car Garage",,28.89007466,-81.95958091,A,P,,249463
S127.237,278 CORBETT DR,The Village of Amelia,Sumter,Corpus Christi,329000,3,2,1240,"1 Car, plus Golf Car Garage",,28.88789649,-81.95504177,A,P,,250066
S127.253,305 MERCER WAY,The Village of Amelia,Sumter,Laredo,279000,2,2,1100,,,28.88858804,-81.95519423,A,P,WrmJbDO6yRs,250147
S127.272,293 ELWICK LN,The Village of Amelia,Sumter,Laredo,299900,2,2,1100,"1 Car, plus Golf Car Garage",,28.88925866,-81.95480708,A,P,,250305
S128.72,585 INNER CIR,The Village of Amelia,Sumter,Lantana,799000,3,2,2012,"2 Car, plus Golf Car Garage",,28.88822279,-81.96361642,A,P,sCQMaAZ-_2I,249468
S128.146,1882 JENKINS CT,The Village of Amelia,Sumter,Gardenia,574000,3,2,1927,"2 Car, plus Golf Car Garage",,28.88764111,-81.9640418,A,P,x_ZM6wPkwXk,250343
S145.181,2351 MCCLELLANVILLE TER,The Village of Duval,Sumter,Austin,314000,2,2,1142,"1 Car, plus Golf Car Garage",,28.87604811,-81.98434311,A,P,,249761
S146.289,2589 PERSIMMON LOOP,The Village of Duval,Sumter,Laredo,286000,2,2,1100,"1 Car, plus Golf Car Garage",,28.87079872,-81.98757766,A,P,,249516
S146.347,2600 ENGLISH IVY CIR,The Village of Duval,Sumter,Corpus Christi,319900,3,2,1240,,,28.86894339,-81.98591086,A,P,J1IulLXiBrE,249309
S146.354,2609 ALANDARI LN,The Village of Duval,Sumter,Amarillo,314500,3,2,1392,2 Car Garage,,28.87009569,-81.98529585,A,P,,250027
S147.135,2704 PERSIMMON LOOP,The Village of Duval,Sumter,Gardenia,499000,3,2,2010,"2 Car, plus Golf Car Garage",,28.86726814,-81.98810967,A,P,,250540
S142.4,1163 WESTMORELAND LOOP,The Village of Duval,Sumter,Iris,499985,3,2,1939,"2 Car, plus Golf Car Garage",,28.87285249,-81.97949617,A,P,DXFe27k8Xvw,249820
S703.52,2408 TRAVIS PL,The Village of Duval,Sumter,Colony,314900,2,2,1156,"1 Car, plus Golf Car Garage",,28.87513474,-81.98856073,A,P,,250236
S705.60,2507 BIRCH AVE,The Village of Duval,Sumter,Cabot Cove,274900,2,2,1188,"1 Car, plus Golf Car Garage",,28.87281574,-81.98931537,A,P,,249450
S707.80,1345 CHATEAU WAY,The Village of Duval,Sumter,Woodlawn,314900,2,2,1258,"1 Car, plus Golf Car Garage",,28.86729977,-81.98447034,A,P,c5KCCA5pD_M,249854
S136.159,770 GOLIATH PL,The Village of Bonita,Sumter,Wisteria,359000,3,2,1512,2 Car Garage,,28.87796166,-81.96881792,A,P,,248356
S141.209,2361 INDIA HOOK TER,The Village of Bonita,Sumter,Lantana,529500,3,2,2096,2 Car Garage,,28.87630436,-81.98221696,A,P,,250209
S141.305,1189 HOMELAND PARK ST,The Village of Bonita,Sumter,Wisteria,420000,3,2,1507,2 Car Garage,,28.87612189,-81.98038029,A,P,,249966
S132.109,2346 JONESBURY RUN,The Village of Hadley,Sumter,Jasmine,379900,3,2,1517,2 Car Garage,,28.87685425,-81.95458593,A,P,,249876
S134.1,2327 DUNKIRK TRL,The Village of Hadley,Sumter,Gardenia,749900,3,2,1926,2 Car Garage,,28.87663445,-81.96103492,A,P,,250336
S134.77,2542 FLINTSHIRE AVE,The Village of Hadley,Sumter,Gardenia,509000,3,2,1887,"2 Car, plus Golf Car Garage",,28.87214665,-81.96163296,A,P,,249353
S135.214,2554 FOXBRIDGE TER,The Village of Hadley,Sumter,Gardenia,494500,3,2,1996,"2 Car, plus Golf Car Garage",,28.87123797,-81.95555254,A,P,,249512
S135.285,512 AINSWORTH CIR,The Village of Hadley,Sumter,Wisteria,559900,3,2,1512,2 Car Garage,Swimming Pool,28.86898562,-81.96049849,A,P,,249889
S716.11,304 VIDALIA PL,The Village of Hadley,Sumter,Amelia,339900,2,2,1196,"1 Car, plus Golf Car Garage",,28.87585245,-81.95515928,A,P,,249978
S713.10,2457 FOSGATE PL,The Village of Hadley,Sumter,Woodlawn,369000,2,2,1132,"1 Car, plus Golf Car Garage",,28.87401584,-81.9612485,A,P,iS154OcifKg,250395
S713.26,2402 SAFFRON LN,The Village of Hadley,Sumter,Stoneybrook,397000,3,2,1602,"1 Car, plus Golf Car Garage",,28.87504126,-81.96181372,A,P,,250382
S137.24,947 CHAPMAN LOOP,The Village of Hemingway,Sumter,Wisteria,435000,3,2,1512,2 Car Garage,,28.87183155,-81.97155287,A,P,,249811
S172.16,2729 JANWOOD AVE,The Village of Hemingway,Sumter,Gardenia,739000,3,2,1927,,,28.86711868,-81.97111789,A,P,,249129
S172.134,2739 MIDLAND TER,The Village of Hemingway,Sumter,Gardenia,474500,3,2,1927,2 Car Garage,,28.86694362,-81.97340814,A,P,,249690
S709.22,1021 JACE PL,The Village of Hemingway,Sumter,Colony,295000,2,2,1156,"1 Car, plus Golf Car Garage",,28.87295223,-81.97560449,A,P,,249917
S709.45,2507 MARIEL WAY,The Village of Hemingway,Sumter,Cabot Cove,334900,2,2,1188,"1 Car, plus Golf Car Garage",,28.87256728,-81.97471934,A,P,,250070
S171.60,2252 CLEARWATER RUN,The Village of Bridgeport at Miona Shores,Sumter,Sanibel,1249000,3,3,3194,"2 Car, plus Golf Car Garage",,28.90765135,-82.00651831,A,P,,249043
S148.4,1836 DUTCHESS LOOP,The Village of St. Charles,Sumter,Wisteria,423700,3,2,1560,2 Car Garage,,28.87779105,-81.99408505,A,P,m1PXXBS41Gg,250449
S148.6,1824 DUTCHESS LOOP,The Village of St. Charles,Sumter,Wisteria,429000,3,2,1512,2 Car Garage,,28.87809409,-81.99434732,A,P,,250067
S148.41,1612 DUTCHESS LOOP,The Village of St. Charles,Sumter,Begonia,439000,3,2,1916,"2 Car, plus Golf Car Garage",,28.87683352,-81.99309633,A,P,h2lpxQCd6KU,249171
S148.72,2332 CEDAR BAY LN,The Village of St. Charles,Sumter,Whispering Pine,424700,3,2,1775,2 Car Garage,,28.87621246,-81.99414333,A,P,xYCosGnwfYY,250105
S150.29,2153 SUN BLUFF CT,The Village of St. Charles,Sumter,Begonia,770000,3,2,1954,"2 Car, plus Golf Car Garage",Swimming Pool,28.88115664,-81.99912064,A,P,WTS53p9RLHY,250134
S166.118,2004 ASHWOOD RUN,The Village of Pennecamp,Sumter,Tuckett Inn,347711,3,2,1450,"1 Car, plus Golf Car Garage",,28.88940705,-82.0013636,A,P,,250535
S821.50,2230 MOSSY OAK DR,The Village of Pennecamp,Sumter,Cabot Cove,319000,2,2,1190,"1 Car, plus Golf Car Garage",,28.89169221,-82.00893206,A,P,,249957
S818.32,1763 FLAGSTONE TER,The Village of Pennecamp,Sumter,Foxglove,525000,3,2,1398,"1 Car, plus Golf Car Garage",,28.89063615,-81.99792831,A,P,ZDAAxby0fZU,249653
S818.88,1939 ADAIR LN,The Village of Pennecamp,Sumter,Grantham,419000,3,2,1685,"1 Car, plus Golf Car Garage",,28.89041123,-82.00058191,A,P,COcxm4SlMrA,250458
S825.10,2085 COUNTRYWIND CT,The Village of Tamarind Grove,Sumter,Grantham,449000,3,2,1685,"1 Car, plus Golf Car Garage",,28.87928345,-82.0050386,A,P,,250560
S155.67,2383 ANSLEY PATH,The Village of Tamarind Grove,Sumter,At Ease,419000,3,2,1488,"2 Car, plus Golf Car Garage",,28.87489097,-82.01012054,A,P,hFwrOCX4eBE,250167
S159.79,2392 HOOK HOLLOW TER,The Village of Tamarind Grove,Sumter,Sandcastle,329900,3,2,1276,"1 Car, plus Golf Car Garage",,28.87453649,-82.01413282,A,P,,250184
S160.34,2409 BACHMAN PATH,The Village of Tamarind Grove,Sumter,Lilac,425000,3,2,1956,"2 Car, plus Golf Car Garage",,28.87904717,-82.01557573,A,P,,249399
S160.110,2287 NEWBURN LN,The Village of Tamarind Grove,Sumter,Iris,469900,3,2,1965,"2 Car, plus Golf Car Garage",,28.87778041,-82.01107129,A,P,W5GhmHUVzRI,248531
S822.32,2378 HADDINGTON CT,The Village of Tamarind Grove,Sumter,Fairmont,415000,3,2,1606,"1 Car, plus Golf Car Garage",,28.87571639,-82.00950283,A,P,,250079
S805.6,2553 CARRINGTON CT,The Village of Buttonwood,Sumter,Colony,274900,2,2,1156,"1 Car, plus Golf Car Garage",,28.89013493,-82.01796005,A,P,,249909
S810.45,2497 CEDAR KEY LN,The Village of Buttonwood,Sumter,Colony,259000,2,2,1156,"1 Car, plus Golf Car Garage",,28.8895532,-82.0162607,A,P,ojob_474z2c,248470
S807.50,2512 GRANVILLE TER,The Village of Buttonwood,Sumter,Colony,299000,2,2,1156,"1 Car, plus Golf Car Garage",,28.88742234,-82.01693508,A,P,,250219
S157.119,2108 BEECHER PATH,The Village of Buttonwood,Sumter,Lily,455000,3,2,1939,2 Car Garage,,28.88286694,-82.00774821,A,P,xr0UvG3_F74,250231
S161.93,2175 DORST LN,The Village of Buttonwood,Sumter,Begonia,435000,3,2,1890,"2 Car, plus Golf Car Garage",,28.88069231,-82.01092248,A,P,,249012
S163.110,1998 KNOTTY PINE TER,The Village of Buttonwood,Sumter,Lily,525000,3,2,1939,"2 Car, plus Golf Car Garage",,28.88481778,-82.00855926,A,P,,250514
S170.1,2433 BUTTONWOOD RUN,The Village of Buttonwood,Sumter,Lantana,839000,3,2,1996,"2 Car, plus Golf Car Garage",,28.88955631,-82.01408307,A,P,JbL91cUXneo,249370
S170.20,2509 BUTTONWOOD RUN,The Village of Buttonwood,Sumter,Allamanda,399000,3,2,1559,2 Car Garage,,28.89077978,-82.01709369,A,P,,249940
S170.68,2596 BUTTONWOOD RUN,The Village of Buttonwood,Sumter,About Time,319900,2,2,1156,"1 Car, plus Golf Car Garage",,28.88962799,-82.01980226,A,P,,248453
S170.222,2029 DALECROFT TRL,The Village of Buttonwood,Sumter,Lily,549900,3,2,1930,,,28.88536871,-82.01878535,A,P,,250374
S170.270,1963 HARDING PATH,The Village of Buttonwood,Sumter,At Ease,394500,3,2,1623,"2 Car, plus Golf Car Garage",,28.88593212,-82.01765817,A,P,7KSlA-QKvJg,249606
S828.91,1241 MERRYWEATHER WAY,The Village of Bridgeport-Creekside Landing,Sumter,Anna Maria,750000,3,2,1612,"1 Car, plus Golf Car Garage",Swimming Pool,28.90503193,-81.97675717,A,P,,250422
S154.79,2435 POMEROY TER,The Village of St. James,Sumter,Sandpiper,309000,3,2,1289,"1 Car, plus Golf Car Garage",,28.87436236,-82.00785023,A,P,,249678
S813.29,1980 PEACEFUL PL,The Village of St. James,Sumter,Colony,315000,2,2,1156,"1 Car, plus Golf Car Garage",,28.87106428,-82.00214359,A,P,QPwTG7UzFRY,250282
S813.48,2050 FAIRVIEW LN,The Village of St. James,Sumter,Colony,300000,2,2,1156,"1 Car, plus Golf Car Garage",,28.87165163,-82.00407733,A,P,,250432
S813.59,1992 FAIRVIEW LN,The Village of St. James,Sumter,Colony,319000,2,2,1156,"1 Car, plus Golf Car Garage",,28.87164571,-82.00245173,A,P,,250061
S175.135,664 ALWICK WAY,The Village of Sanibel,Sumter,Holly,474987,3,2,2071,2 Car Garage,,28.86147877,-81.9653123,A,P,6XowyR1kc1o,248874
S176.32,2875 ADRIENNE WAY,The Village of Sanibel,Sumter,Lily,499000,3,2,1939,,,28.86356227,-81.97093193,A,P,fp6pHc9mF1E,248748
S176.68,2966 BRADDY CT,The Village of Sanibel,Sumter,Aspen,524900,3,2,1950,"2 Car, plus Golf Car Garage",,28.86151034,-81.96761519,A,P,,250436
S177.89,2921 RAIN LILY LOOP,The Village of Sanibel,Sumter,Begonia,479000,3,2,1860,"2 Car, plus Golf Car Garage",,28.86269174,-81.97378509,A,P,,250029
S177.136,923 VANILLA LEAF PL,The Village of Sanibel,Sumter,Cedar,465000,3,2,1865,2 Car Garage,,28.85998774,-81.97293234,A,P,Kpl8xERgB0U,250101
S178.45,568 EVESBOROUGH PATH,The Village of Sanibel,Sumter,Lilac,434711,3,2,1956,"2 Car, plus Golf Car Garage",,28.8582757,-81.96269546,A,P,,249794
S197.54,3095 ISLAWILD WAY,The Village of Sanibel,Sumter,At Ease,399999,3,2,1800,2 Car Garage,,28.85744873,-81.97255773,A,P,PKaa9AQEof4,250157
S197.184,3098 BAFFIE CT,The Village of Sanibel,Sumter,Sandpiper,335000,3,2,1352,"1 Car, plus Golf Car Garage",,28.85817233,-81.96997851,A,P,3qrOaMKU-9o,249774
S950.52,3147 AMBERLY CT,The Village of Sanibel,Sumter,Charlotte,399000,3,2,1416,"1 Car, plus Golf Car Garage",,28.85693528,-81.96321875,A,P,sn1hrYWT8Z8,249903
S802.57,1023 BLUE HERON AVE,The Village of Bridgeport - Edgewater,Sumter,Glen Arbor,645000,3,2,1445,2 Car Garage,,28.90869763,-81.97939837,A,P,,250360
S205.102,1056 ALLAIRE LOOP,The Village of Fernandina,Sumter,Aspen,775000,3,2,1962,"2 Car, plus Golf Car Garage",,28.85109077,-81.97857413,A,P,gFqRF3h10Rw,249574
S206.156,3198 LAFAYETTE ST,The Village of Fernandina,Sumter,Elm,529000,3,2,1986,2 Car Garage,,28.85560867,-81.9795003,A,P,GYWHZA3kXXo,250401
S208.58,1238 THUNDERBIRD WAY,The Village of Fernandina,Sumter,Iris,529900,3,2,2066,"2 Car, plus Golf Car Garage",,28.85626157,-81.98130829,A,P,,250380
S208.79,1334 QUAIL CT,The Village of Fernandina,Sumter,Iris,647750,3,2,2081,"2 Car, plus Golf Car Garage",,28.85614679,-81.98443971,A,P,ppwkkI9khzk,250454
S208.110,1276 MOCKINGBIRD LN,The Village of Fernandina,Sumter,Lily,445000,3,2,1939,2 Car Garage,,28.85638748,-81.98338001,A,P,,250116
S215.8,3361 BRASSIE TER,The Village of Fernandina,Sumter,Cedar,489900,3,2,1799,2 Car Garage,,28.85150639,-81.98471483,A,P,,250373
S944.41,3353 EMPIRE AVE,The Village of Fernandina,Sumter,Colony,294999,2,2,1156,"1 Car, plus Golf Car Garage",,28.85189069,-81.98552311,A,P,,250415
S952.49,3458 PLACIDA TER,The Village of Fernandina,Sumter,Colony,329900,2,2,1156,"1 Car, plus Golf Car Garage",,28.84943471,-81.98650802,A,P,,249813
S952.66,1479 OLYMPIA ST,The Village of Fernandina,Sumter,Cabot Cove,315900,2,2,1188,"1 Car, plus Golf Car Garage",,28.84963869,-81.98810217,A,P,,249245
S952.69,1467 OLYMPIA ST,The Village of Fernandina,Sumter,Colony,319000,2,2,1156,"1 Car, plus Golf Car Garage",,28.84947915,-81.98777035,A,P,,249735
S181.49,3389 GREENACRES TER,The Village of Charlotte,Sumter,Sun Kissed,339000,3,2,1392,2 Car Garage,,28.85103121,-81.9664154,A,P,,249176
S181.118,3399 COUNTRYSIDE PATH,The Village of Charlotte,Sumter,Sun Kissed,399000,3,2,1392,2 Car Garage,,28.85034188,-81.96949543,A,P,kjOLWkVkO7Q,249970
S182.106,3458 NESTLEBRANCH AVE,The Village of Charlotte,Sumter,Iris,524900,3,2,1957,"2 Car, plus Golf Car Garage",,28.84973419,-81.96624305,A,P,,250234
S196.79,825 ULELAH ST,The Village of Charlotte,Sumter,Holly,469000,3,2,2096,2 Car Garage,,28.85614519,-81.9701842,A,P,OUta76ySDgk,249801
S199.116,3489 FIELDSTONE PATH,The Village of Charlotte,Sumter,Iris,529000,3,2,1982,"2 Car, plus Golf Car Garage",,28.84959037,-81.97244188,A,P,,249968
S947.16,598 KNIGHTSBRIDGE PL,The Village of Charlotte,Sumter,Bonifay,344900,3,2,1416,"1 Car, plus Golf Car Garage",,28.85409504,-81.96384116,A,P,,249879
S945.49,3335 SEBASTION AVE,The Village of Charlotte,Sumter,Charlotte,418000,3,2,1416,"1 Car, plus Golf Car Garage",,28.85230063,-81.9624587,A,P,YYwVBF2UP50,250124
S942.57,848 SAPPHIRE PL,The Village of Charlotte,Sumter,Bonifay,424900,3,2,1407,"1 Car, plus Golf Car Garage",,28.85117719,-81.97098416,A,P,,250199
S32.40,2809 LARRANAGA DR,The Village of Harmeswood,Sumter,New Orleans,1999900,4,3.5,3260,"2 Car, plus Golf Car Garage",Swimming Pool,28.95673987,-81.99829313,A,P,,249048
S209.70,3138 AMHERST WAY,The Village of Gilchrist,Sumter,Ivy,589000,4,2,2558,2 Car Garage,,28.85756154,-81.9874914,A,P,tUEA5ykBnow,250042
S210.131,2991 OLENDA DR,The Village of Gilchrist,Sumter,Gardenia,549900,3,2,1907,2 Car Garage,,28.86068979,-81.98602461,A,P,,249068
S210.188,1475 BRINKLEY LN,The Village of Gilchrist,Sumter,Begonia,535000,3,2,1860,"2 Car, plus Golf Car Garage",,28.86130555,-81.98797442,A,P,,249976
S212.58,2965 STEPPING STONE PATH,The Village of Gilchrist,Sumter,Lantana,699000,3,2,2123,3 Car Garage,,28.86213878,-81.99457145,A,P,EK8pmJKPRCo,249072
S214.23,3265 HAISLIP CT,The Village of Gilchrist,Sumter,Lily,1074900,3,2,1979,3 Car Garage,Swimming Pool,28.85407161,-81.98925995,A,P,,249470
S214.98,3234 ORANGEDALE TER,The Village of Gilchrist,Sumter,Wisteria,429900,3,2,1584,2 Car Garage,,28.85497736,-81.98618252,A,P,,249998
S951.4,3056 NUTWOOD AVE,The Village of Pinellas,Sumter,Colony,319000,2,2,1156,"1 Car, plus Golf Car Garage",,28.85926322,-82.01449538,A,P,tVhYviATV7Y,248818
S943.13,2396 INWOOD PL,The Village of Pinellas,Sumter,Anaheim,379900,3,2,1357,"1 Car, plus Golf Car Garage",,28.85834811,-82.01354882,A,P,,248980
S943.18,3091 EASTWOOD TER,The Village of Pinellas,Sumter,Charlotte,497711,3,2,1504,"1 Car, plus Golf Car Garage",,28.85842601,-82.01270106,A,P,,250075
S222.36,3413 KANANWOOD TER,The Village of Collier,Sumter,Begonia,480000,3,2,1939,"2 Car, plus Golf Car Garage",,28.85051401,-82.0051068,A,P,,249685
S223.159,3359 HOLLYOAK WAY,The Village of Collier,Sumter,Cedar,498000,3,2,2007,2 Car Garage,,28.85209369,-82.0048312,A,P,kTrDwbUgYeo,249768
S232.128,3459 WENTROP AVE,The Village of Collier,Sumter,Lantana,895000,3,2,2013,"2 Car, plus Golf Car Garage",,28.84938323,-82.01771749,A,P,,249401
S954.55,3505 HABERSHAM CT,The Village of Collier,Sumter,Arlington,499814,3,2,1654,2 Car Garage,,28.84823508,-82.01179233,A,P,,250476
S963.50,2156 ANTILLES CT,The Village of Collier,Sumter,Wyndham,439000,3,2,1935,"1 Car, plus Golf Car Garage",,28.84862917,-82.00691788,A,P,,249465
S959.64,3433 ALWYNE AVE,The Village of Collier,Sumter,Colony,284500,2,2,1156,"1 Car, plus Golf Car Garage",,28.85000012,-82.01989864,A,P,,250299
S955.58,2578 ALCADE PL,The Village of Collier,Sumter,Bonifay,349900,3,2,1407,"1 Car, plus Golf Car Garage",,28.84824407,-82.0187058,A,P,,249338
S216.57,3446 ICHABOD WAY,The Village of Hillsborough,Sumter,Lily,479000,3,2,1920,"2 Car, plus Golf Car Garage",,28.84968303,-81.99112794,A,P,,248806
S216.145,3400 NURSERY PL,The Village of Hillsborough,Sumter,Lily,559900,3,2,1929,3 Car Garage,,28.85090613,-81.99334745,A,P,,250188
S217.121,1606 TANGO ST,The Village of Hillsborough,Sumter,Holly,525000,3,2,2107,2 Car Garage,,28.84813689,-81.99167885,A,P,HGXs3ljxFSs,250353
S217.162,1583 LEMON LOOP,The Village of Hillsborough,Sumter,Gardenia,539000,3,2,2080,2 Car Garage,,28.84663175,-81.99123612,A,P,,248551
S220.41,3663 INFINITY RUN,The Village of Hillsborough,Sumter,Jasmine,430000,3,2,1609,"2 Car, plus Golf Car Garage",,28.84389444,-82.00692035,A,P,,249955
S234.201,3775 INDIANWOOD RD,The Village of Lake Deaton,Sumter,Jasmine,379900,3,2,1781,2 Car Garage,,28.84174815,-81.99954825,A,P,,249539
S234.203,3766 INDIANWOOD RD,The Village of Lake Deaton,Sumter,Sunflower,442000,3,2,1925,"2 Car, plus Golf Car Garage",,28.84196775,-82.00000022,A,P,fWV6z4xcpko,249579
S234.218,3829 NEIGHBORLY WAY,The Village of Lake Deaton,Sumter,Whispering Pine,380000,3,2,1679,2 Car Garage,,28.84052928,-82.00008695,A,P,,249758
S236H.102,3743 UNDERBRUSH TRL,The Village of Lake Deaton,Sumter,Lily,499600,3,2,2039,"2 Car, plus Golf Car Garage",,28.84210531,-81.99591798,A,P,,250516
S236H.105,3764 YUMA PL,The Village of Lake Deaton,Sumter,Sunflower,479900,3,2,1925,"2 Car, plus Golf Car Garage",,28.84197502,-81.99567102,A,P,,250008
S960.8,1953 CARROTWOOD ST,The Village of Lake Deaton,Sumter,Callaway,315000,2,2,1206,"1 Car, plus Golf Car Garage",,28.84053757,-82.00154166,A,P,,249496
S235H.55,1451 LEISURE ST,The Village of Lake Deaton,Sumter,Augusta,899900,3,2,2531,3 + Car Garage,,28.8355231,-81.99580801,A,P,d8RSRceqqp4,250435
S202.95,3580 VALLEYBROOK WAY,The Village of Dunedin,Sumter,Cedar,498900,3,2,1839,2 Car Garage,,28.84532049,-81.98102779,A,P,,250420
S203.14,3683 FIR ST,The Village of Dunedin,Sumter,Sunflower,454500,3,2,1964,"2 Car, plus Golf Car Garage",,28.84384898,-81.98339628,A,P,2i3GI41irOI,248695
S237.16,1483 WALNUT WAY,The Village of Dunedin,Sumter,Iris,549000,3,2,1990,"2 Car, plus Golf Car Garage",,28.84729727,-81.98863622,A,P,Ui9ssL85dq4,250339
S965.26,1223 TRAPPERS CT,The Village of Dunedin,Sumter,Durham,329000,2,2,1161,"1 Car, plus Golf Car Garage",,28.84768736,-81.98137184,A,P,,250127
S971.10,580 BERMUDEZ CT,Haciendas of Mission Hills,Sumter,Wyndham,599000,3,2,1793,,,28.9195931,-81.96706795,A,P,,250533
S971.31,644 CABRERA CT,Haciendas of Mission Hills,Sumter,Wyndham,675000,3,2,1715,2 Car Garage,,28.91805636,-81.96525246,A,P,MuZ7aZQdmTs,250498
S971.128,646 AVECILLA DR,Haciendas of Mission Hills,Sumter,Wyndham,799975,3,2,1871,2 Car Garage,,28.9170139,-81.96507305,A,P,,248824
S971.165,598 OSADA AVE,Haciendas of Mission Hills,Sumter,Wyndham,549900,3,2,1715,2 Car Garage,,28.91906292,-81.96651687,A,P,,250036
S966.27,3930 E TORCH LAKE DR,The Village of Collier at Antrim Dells,Sumter,Arlington,664000,3,2,1794,2 Car Garage,Swimming Pool,28.83906097,-82.01261604,A,P,,250362
S966.125,3751 HALLOY LN,The Village of Collier at Antrim Dells,Sumter,Charlotte,460000,3,2,1504,"1 Car, plus Golf Car Garage",,28.84197564,-82.01505729,A,P,uHK2odwosio,250306
S966.158,2430 TOLLESON TRL,The Village of Collier at Antrim Dells,Sumter,Avondale,585000,3,2,1770,2 Car Garage,,28.83984147,-82.01448323,A,P,8pA7hbS58hw,250452
S969.39,2909 CHARLEVOIX ST,The Village of Collier at Alden Bungalows,Sumter,Winslow,549000,3,2,1938,2 Car Garage,,28.84975451,-82.02785748,A,P,ExaaCJowa2c,250448
S969.43,2887 CHARLEVOIX ST,The Village of Collier at Alden Bungalows,Sumter,Winslow,555555,3,2,1938,2 Car Garage,,28.84967101,-82.02715222,A,P,,249434
S969.55,2835 CHARLEVOIX ST,The Village of Collier at Alden Bungalows,Sumter,Winslow,515000,3,2,1958,2 Car Garage,,28.84913937,-82.02523709,A,P,nMzUIQ7VSKk,250400
S969.72,3517 MANCELONA TER,The Village of Collier at Alden Bungalows,Sumter,Fairmont,535000,3,2,1815,2 Car Garage,,28.84795516,-82.02653747,A,P,oeNQJWfyKgA,249974
S969.112,2877 PETOSKEY PL,The Village of Collier at Alden Bungalows,Sumter,Arlington,579900,3,2,1807,2 Car Garage,,28.84898339,-82.02709144,A,P,UBaTeh2fOYU,249815
S969.117,2853 PETOSKEY PL,The Village of Collier at Alden Bungalows,Sumter,Arlington,525000,3,2,1781,2 Car Garage,,28.84891091,-82.02623042,A,P,,248955
S969.150,3463 LEELANAU CT,The Village of Collier at Alden Bungalows,Sumter,Winslow,513089,3,2,1938,2 Car Garage,,28.84870171,-82.02858463,A,P,,248581
S969.160,3444 LEELANAU CT,The Village of Collier at Alden Bungalows,Sumter,Arlington,519000,3,2,1794,2 Car Garage,,28.84926154,-82.02879335,A,P,kml7P5PVzuc,249283
S969.166,3480 LEELANAU CT,The Village of Collier at Alden Bungalows,Sumter,Montclair,548000,3,2,1818,2 Car Garage,,28.84847163,-82.02920074,A,P,,250389
S183.108,451 POMEGRANATE PATH,The Village of Labelle,Sumter,Iris,525000,3,2,1967,"2 Car, plus Golf Car Garage",,28.85143403,-81.95921216,A,P,zhdA8XamYUE,250431
S186.59,483 PINFISH CT,The Village of Labelle,Sumter,Ivy,769000,4,2,2558,"2 Car, plus Golf Car Garage",,28.85077609,-81.96103084,A,P,9B_imhm2Loo,250376
S186.95,3495 BOARDROOM TRL,The Village of Labelle,Sumter,Sandpiper,359000,3,2,1351,"1 Car, plus Golf Car Garage",,28.84911406,-81.9595161,A,P,,250483
S970.32,515 JUJUBE AVE,The Village of Labelle,Sumter,Somerville,475000,3,2,1544,2 Car Garage,,28.84987099,-81.9613111,A,P,,250152
S970.61,3467 DOLAN CT,The Village of Labelle,Sumter,Charlotte,420000,3,2,1416,"1 Car, plus Golf Car Garage",,28.84947054,-81.96287899,A,P,QYoXj6raN48,250088
S833.54,3104 CARTER PATH,Oxford Oaks - Family Neighborhood,Sumter,Ponderosa Pine-OO,449999,4,2,1978,3 Car Garage,,28.91913607,-82.05104982,A,P,0ZdUs_ICG7M,250404
S833.130,3290 SENNETT CIR,Oxford Oaks - Family Neighborhood,Sumter,Ponderosa Pine-OO,429000,4,2,2084,3 Car Garage,,28.91676779,-82.04713344,A,P,,249164
S833.160,3323 ROHAN RD,Oxford Oaks - Family Neighborhood,Sumter,Putnam-OO,339621,4,2,2003,2 Car Garage,,28.91883764,-82.0475989,A,P,,250541
S833.186,3269 SENNETT CIR,Oxford Oaks - Family Neighborhood,Sumter,Ivy,649900,4,3,2900,3 Car Garage>..<3 + Car Garage,,28.9172547,-82.04879236,A,P,,248898
S833.231,11220 ROZ WAY,Oxford Oaks - Family Neighborhood,Sumter,Ivy-OO,747727,4,2,2587,"2 Car, plus Golf Car Garage",Swimming Pool,28.91917575,-82.04207169,A,P,,250151
S833.265,11196 ROZ WAY,Oxford Oaks - Family Neighborhood,Sumter,Grandview,724621,4,2.5,3602,3 Car Garage,Swimming Pool,28.91727928,-82.04324713,A,P,,249908
S833.276,11360 ZIMMERMAN PATH,Oxford Oaks - Family Neighborhood,Sumter,Ivy-OO,619900,4,2,2587,2 Car Garage,,28.92121638,-82.04086321,A,P,,249555
S833.279,11359 ZIMMERMAN PATH,Oxford Oaks - Family Neighborhood,Sumter,Zinnia-OO,449500,3,3,2013,2 Car Garage,,28.92113872,-82.04164991,A,P,,250425
S833.293,11387 ZIMMERMAN PATH,Oxford Oaks - Family Neighborhood,Sumter,Ponderosa Pine-OO,414900,4,2,1978,2 Car Garage,,28.92028262,-82.03887381,A,P,,248637
S833.338,11297 BERNING TER,Oxford Oaks - Family Neighborhood,Sumter,Laurel Oak-OO,599000,3,3,2664,3 Car Garage,,28.92305315,-82.03947479,A,P,SMpGXkDj_4M,246876
S833.405,3524 THORNE PATH,Oxford Oaks - Family Neighborhood,Sumter,Putnam-OO,408000,4,2,2003,2 Car Garage,,28.92310371,-82.04512248,A,P,,249705
S833.424,3292 DZURO DR,Oxford Oaks - Family Neighborhood,Sumter,Putnam-OO,389000,4,2,2003,2 Car Garage,,28.92111883,-82.04591756,A,P,,249578
S833.439,3260 DZURO DR,Oxford Oaks - Family Neighborhood,Sumter,Premier,995000,3,3,2245,,Swimming Pool,28.92047191,-82.0492743,A,P,BbZNqtPilok,247061
S833.491,3482 KELLAHER PL,Oxford Oaks - Family Neighborhood,Sumter,Ponderosa Pine-OO,338900,4,2,1978,2 Car Garage,,28.92233391,-82.04519631,A,P,,250130
S833.519,3354 BOYD CIR,Oxford Oaks - Family Neighborhood,Sumter,Sandpiper-OO,324814,3,2,1361,"2 Car, plus Golf Car Garage",,28.92360766,-82.04679276,A,P,,249523
S192.4,4055 DESKIN LN,The Village of Osceola Hills,Sumter,Allamanda,417000,3,2,1559,2 Car Garage,,28.83413574,-81.96354627,A,P,sQldQCvAc84,249991
S193.94,439 VERTIGO LN,The Village of Osceola Hills,Sumter,Lilac,724900,3,2,2219,"2 Car, plus Golf Car Garage",Swimming Pool,28.83198995,-81.95917345,A,P,YoC1uvtFrlE,250046
S193.101,4217 VAPOR CT,The Village of Osceola Hills,Sumter,Begonia,489900,3,2,1890,"2 Car, plus Golf Car Garage",,28.83074317,-81.95927542,A,P,,250064
S194.123,728 CONGAREE LOOP,The Village of Osceola Hills,Sumter,Begonia,847711,3,2.5,2829,"2 Car, plus Golf Car Garage",,28.83059469,-81.96631289,A,P,,249825
S194.211,4362 WATCH HILL ST,The Village of Osceola Hills,Sumter,Iris,499500,3,2,1903,"2 Car, plus Golf Car Garage",,28.82731312,-81.96378611,A,P,,250520
S958.54,604 YBOR LN,The Village of Osceola Hills,Sumter,Colony,324999,2,2,1156,"1 Car, plus Golf Car Garage",,28.83237867,-81.96377737,A,P,,249563
L25.118,1092 INCORVAIA WAY,The Village of Pine Ridge,Lake,Gardenia,599900,3,3,2409,"2 Car, plus Golf Car Garage",,28.8574067,-81.94678272,A,P,,250333
L27.22,3133 KRAMER CT,The Village of Pine Ridge,Lake,Seabreeze,342000,3,2,1503,2 Car Garage,,28.85712479,-81.93705908,A,P,,250082
L28.2,3164 BRINE WAY,The Village of Pine Ridge,Lake,Palm Beach,365000,3,2,1895,2 Car Garage,,28.85633649,-81.93876019,A,P,,249675
L28.46,725 JONES LN,The Village of Pine Ridge,Lake,Wisteria,349800,3,2,1631,2 Car Garage,,28.85623194,-81.93756603,A,P,,246030
L36.55,3237 TRUSSLER TER,The Village of Pine Ridge,Lake,Sun Kissed,370000,3,2,1456,"2 Car, plus Golf Car Garage",,28.85472581,-81.94451041,A,P,,249014
L36.92,3161 DRESSENDORFER DR,The Village of Pine Ridge,Lake,Sunflower,419900,3,2,1907,"2 Car, plus Golf Car Garage",,28.85657772,-81.94694714,A,P,,249861
L37.45,3291 DELK DR,The Village of Pine Ridge,Lake,Bayberry,525000,3,3,1864,"2 Car, plus Golf Car Garage",,28.85574397,-81.94783296,A,P,31dOTb-ay0E,249029
L38.8,3096 POPE PL,The Village of Pine Ridge,Lake,Zinnia,899900,3,3,2079,"2 Car, plus Golf Car Garage",Swimming Pool,28.85829237,-81.95082564,A,P,x6TL2p1-ADk,249798
L38.47,3127 HUTCHESON WAY,The Village of Pine Ridge,Lake,Gardenia,709000,3,2,2373,"2 Car, plus Golf Car Garage",,28.85766144,-81.9486044,A,P,,250462
L105.51,875 PARRISH PL,The Village of Pine Ridge,Lake,Anaheim,338900,3,2,1380,"1 Car, plus Golf Car Garage",,28.8606589,-81.94160363,A,P,,250190
L29.11,3238 PETERSON PL,The Village of Pine Hills,Lake,Zinnia,549000,3,3,2324,"2 Car, plus Golf Car Garage",,28.85456774,-81.9375939,A,P,,249428
L29.67,3275 BURNS DR,The Village of Pine Hills,Lake,Iris,549900,3,2,1960,"2 Car, plus Golf Car Garage",,28.85352073,-81.93637825,A,P,,250338
L30.60,3291 IIAMS CT,The Village of Pine Hills,Lake,Bayberry,529900,3,3,1892,"2 Car, plus Golf Car Garage",,28.85323465,-81.93903544,A,P,,249456
L30.89,3317 FINK ST,The Village of Pine Hills,Lake,Palm Beach,499000,3,2,1794,"2 Car, plus Golf Car Garage",,28.85266728,-81.93839695,A,P,,248838
L31.118,3457 BORROWMAN AVE,The Village of Pine Hills,Lake,Augusta,1895000,3,2,2587,"2 Car, plus Golf Car Garage",Swimming Pool,28.84915131,-81.93613115,A,P,,250346
L32.31,851 KAUSKA WAY,The Village of Pine Hills,Lake,Lantana,995000,3,2,2120,"2 Car, plus Golf Car Garage",,28.84998813,-81.94094309,A,P,,250365
L32.116,848 WIECHENS WAY,The Village of Pine Hills,Lake,Creekwood,470000,3,2,1881,"2 Car, plus Golf Car Garage",,28.85084281,-81.94089963,A,P,,249805
L32.118,838 WIECHENS WAY,The Village of Pine Hills,Lake,Whispering Pine,409000,3,2,1708,"2 Car, plus Golf Car Garage",,28.85106198,-81.94057879,A,P,,250399
L33.32,989 VAUGHN WAY,The Village of Pine Hills,Lake,Mossy Oak,479850,3,3,1927,"2 Car, plus Golf Car Garage",,28.85023962,-81.94488662,A,P,,248671
L33.45,935 VAUGHN WAY,The Village of Pine Hills,Lake,Aspen,450000,3,2,1970,2 Car Garage,,28.85001032,-81.94289204,A,P,oR_Sk64m7F0,249840
L33.125,942 KOLLER CT,The Village of Pine Hills,Lake,Begonia,459000,3,2,1807,"2 Car, plus Golf Car Garage",,28.84909771,-81.94343925,A,P,,250214
L34.65,3319 VELTRE WAY,The Village of Pine Hills,Lake,Sarasota,649800,3,2,2519,"2 Car, plus Golf Car Garage",,28.85277274,-81.94635094,A,P,,250405
L34.99,3336 MCCABE ST,The Village of Pine Hills,Lake,Creekwood,530000,3,2,2041,"2 Car, plus Golf Car Garage",,28.85214471,-81.94419084,A,P,2FUTtWtHv9Y,250166
S972.23,2860 RESMONDO RD,The Village of Sanibel at Clifford,Sumter,Avondale,649900,3,2,1624,"1 Car, plus Golf Car Garage",Swimming Pool,28.8638998,-81.95760429,A,P,,248992
S2F.46,5648 CEDAR WAXWING DR,The Village of Fenney,Sumter,Sand Dollar,289900,2,2,1262,,,28.79610606,-82.02964138,A,P,,250409
S2F.97,3085 SPIDER LILY ST,The Village of Fenney,Sumter,Modified Designer,775000,3,2,2615,"2 Car, plus Golf Car Garage",,28.79652037,-82.0326103,A,P,-1SJAfb1bhk,249266
S3F.5,5686 KEY DEER PATH,The Village of Fenney,Sumter,At Ease,349000,3,2,1465,2 Car Garage,,28.79517506,-82.02878726,A,P,,249677
S9F.87,2955 GLENDA PL,The Village of Fenney,Sumter,Oceana,535000,3,3,1936,"2 Car, plus Golf Car Garage",,28.78993599,-82.02934222,A,P,BQ3Appl7SK4,250326
S11F.43,5912 WOOD STORK WAY,The Village of Fenney,Sumter,Iris,935000,3,2,1918,3 Car Garage>..<3 + Car Garage,,28.78947262,-82.03210087,A,P,MFXElNJRIes,250057
S11F.90,5868 WOOD STORK WAY,The Village of Fenney,Sumter,Lantana,610000,3,2,2016,3 Car Garage,,28.790583,-82.03270526,A,P,,248601
S624.32,5838 WADE TER,The Village of Fenney,Sumter,Ruby,289000,2,2,1148,"1 Car, plus Golf Car Garage",,28.79132376,-82.03230338,A,P,,249894
S624.56,5866 MARSH CT,The Village of Fenney,Sumter,Jade,299000,2,2,1184,"1 Car, plus Golf Car Garage",,28.7907481,-82.03135075,A,P,,248845
S625.7,3138 MERRIT LN,The Village of Fenney,Sumter,Monticello,398500,3,2,1793,2 Car Garage,,28.78891296,-82.03426114,A,P,,248965
S623.17,5843 HOWELL TER,The Village of Fenney,Sumter,Cottage,235000,1,1,822,,,28.79139708,-82.02871245,A,P,,248970
S623.25,2954 KNAPP ST,The Village of Fenney,Sumter,Ruby,319000,2,2,1148,"1 Car, plus Golf Car Garage",,28.79086549,-82.02935005,A,P,,250307
S8F.73,5821 GILMORE TER,The Village of Fenney,Sumter,Woodside,635000,4,3,2276,3 Car Garage,,28.79182796,-82.02439114,A,P,,248830
S10F.82,2986 DIVER LOOP,The Village of Fenney,Sumter,Lily,765900,3,2,1949,"2 Car, plus Golf Car Garage",Swimming Pool,28.79047752,-82.03067403,A,P,,249559
M233.22,16969 SE 74TH SOULLIERE AVENUE,The Village of Chatham at Soulliere,Marion,Montclair,399000,3,2,1702,2 Car Garage,,28.975489,-82.03063455,A,P,YTO5sKckAFQ,250302
M233.119,7360 SE 168TH MITZI STREET,The Village of Chatham at Soulliere,Marion,Charlotte,352000,3,2,1442,"1 Car, plus Golf Car Garage",,28.97727103,-82.03186424,A,P,bbi7wGhTPf0,249472
S619.9,2442 DOOLEY ST,The Village of DeSoto,Sumter,Winslow,559000,3,2,1772,2 Car Garage,,28.79304182,-82.01528249,A,P,,249174
S619.37,2441 NELLIE RD,The Village of DeSoto,Sumter,Anaheim,344900,3,2,1450,"1 Car, plus Golf Car Garage",,28.79403943,-82.01533952,A,P,,248432
S619.46,5734 LEIGH LN,The Village of DeSoto,Sumter,Charlotte,425000,3,2,1424,2 Car Garage,,28.79380399,-82.01662291,A,P,,250181
S619.71,2430 NELLIE RD,The Village of DeSoto,Sumter,Charlotte,349000,3,2,1424,"1 Car, plus Golf Car Garage",,28.79368069,-82.01509686,A,P,,250480
S620.30,5852 UNGER CT,The Village of DeSoto,Sumter,Carrabelle,325000,2,2,1147,"1 Car, plus Golf Car Garage",,28.79097915,-82.01395613,A,P,,250468
S621.66,6026 GIBSON AVE,The Village of DeSoto,Sumter,Belmore,389000,3,2,1699,2 Car Garage,,28.78690088,-82.0158812,A,P,,250156
S622.3,6036 ALTMAN AVE,The Village of DeSoto,Sumter,Opal,304900,2,2,1337,"1 Car, plus Golf Car Garage",,28.78681473,-82.01500306,A,P,,250013
S7F.3,2560 CARUTHERS PATH,The Village of DeSoto,Sumter,Lantana,1075000,3,2,2016,"2 Car, plus Golf Car Garage",Swimming Pool,28.78836459,-82.01869478,A,P,rJ0VIPVyyWc,250318
S15V.32,2229 GORDON PATH,The Village of McClure,Sumter,Sarasota,1075000,3,2,2895,3 + Car Garage,,28.78766217,-82.00907109,A,P,CAcQnCr7Ztg,249814
S15V.51,5935 PERDUE PL,The Village of McClure,Sumter,Woodside,769900,4,3,2278,"2 Car, plus Golf Car Garage",,28.78938738,-82.00537037,A,P,JTx79o8oIHg,249972
S17V.40,2109 CANNON LOOP,The Village of McClure,Sumter,Gardenia,749900,3,2,2051,3 + Car Garage,,28.79387849,-82.00689079,A,P,KC4sw6A4ANw,250023
S18V.13,2100 BILLER CIR,The Village of McClure,Sumter,Lily,989000,3,2,1999,"2 Car, plus Golf Car Garage",Swimming Pool,28.7982751,-82.00730529,A,P,yMMFzFFGNEQ,249518
S18V.22,2130 BILLER CIR,The Village of McClure,Sumter,Woodside,1200000,4,3.5,2769,"2 Car, plus Golf Car Garage",Swimming Pool,28.79792906,-82.00569655,A,P,,250472
S18V.31,2158 BILLER CIR,The Village of McClure,Sumter,Mossy Oak,569000,3,3,1905,"2 Car, plus Golf Car Garage",,28.7963793,-82.0058247,A,P,dfo0QOWEkzI,250506
S19V.43,5549 HEAD WAY,The Village of McClure,Sumter,Jasmine,499900,3,2,1569,2 Car Garage,,28.79891381,-82.01242423,A,P,,249890
S718.37,6027 NEILSON CT,The Village of McClure,Sumter,Charlotte,399900,3,2,1484,2 Car Garage,,28.786845,-82.00968934,A,P,,250222
S719.40,2096 SCHULZ WAY,The Village of McClure,Sumter,Winslow,672458,3,2,1743,2 Car Garage,,28.79548453,-82.00565739,A,P,,250519
S719.62,2167 SCHULZ WAY,The Village of McClure,Sumter,Montclair,439900,3,2,1642,2 Car Garage,,28.79493376,-82.00734003,A,P,,250578
S720.13,2322 SHEEHAN ST,The Village of McClure,Sumter,Emerald,285000,3,2,1426,"1 Car, plus Golf Car Garage",,28.79617854,-82.01188308,A,P,,248820
S720.33,2301 SNODGRASS LN,The Village of McClure,Sumter,Jade,265000,2,2,1184,"1 Car, plus Golf Car Garage",,28.79731341,-82.01133807,A,P,,249712
S722.19,5740 SANBORN ST,The Village of McClure,Sumter,Winslow,685000,3,2,1806,"2 Car, plus Golf Car Garage",,28.79360603,-82.01173286,A,P,,250524
S973.60,3554 FARRELL AVE,The Village of Collier at Atwood Bungalows,Sumter,Charlotte,499900,3,2,1484,2 Car Garage,,28.8469761,-82.02901532,A,P,,250496
S22V.41,5422 ALFREDSON TER,The Village of Marsh Bend,Sumter,Jackson,575000,3,2,2339,"2 Car, plus Golf Car Garage",,28.8013405,-82.01331081,A,P,,248978
S25V.51,2685 AVIDON LN,The Village of Marsh Bend,Sumter,Bridgeport,1595000,3,3.5,2612,"2 Car, plus Golf Car Garage",,28.80893419,-82.02193059,A,P,eOQ7_wHdg4g,250410
S28V.67,5055 FRANCIS LOOP,The Village of Marsh Bend,Sumter,Wisteria,399900,3,2,1569,2 Car Garage,,28.81046688,-82.02629431,A,P,,249193
S29V.47,5060 SANWALD ST,The Village of Marsh Bend,Sumter,Jasmine,469900,3,2,1569,2 Car Garage,,28.81032026,-82.02453877,A,P,,250385
S723.49,2252 BERRY LN,The Village of Marsh Bend,Sumter,Carrabelle,385000,2,2,1290,2 Car Garage,,28.80096737,-82.00986492,A,P,-yASRzwfCk8,250253
S725.12,2470 LEWIS LN,The Village of Marsh Bend,Sumter,Topaz,284975,2,2,1203,2 Car Garage,,28.80024791,-82.01561084,A,P,,249871
S725.28,5449 WEAVER AVE,The Village of Marsh Bend,Sumter,Jade,264967,2,2,1184,"1 Car, plus Golf Car Garage",,28.80087452,-82.0142451,A,P,,249867
S725.30,5439 WEAVER AVE,The Village of Marsh Bend,Sumter,Sapphire,315000,2,2,1462,"1 Car, plus Golf Car Garage",,28.80109261,-82.01427813,A,P,,248469
S729.10,2430 MARJA ST,The Village of Marsh Bend,Sumter,Charlotte,562000,3,2,1484,2 Car Garage,,28.8110549,-82.01456383,A,P,,249747
S728.20,5009 PRISCILLA LOOP,The Village of Marsh Bend,Sumter,Winslow,634900,3,2,1985,"2 Car, plus Golf Car Garage",,28.81170242,-82.0220899,A,P,I8ds-0F5FCU,250187
S33V.27,5773 HENRY LOOP,The Village of Linden,Sumter,Indigo,529900,3,3,1860,"2 Car, plus Golf Car Garage",,28.79505506,-82.00132561,A,P,,250311
S33V.32,5751 HENRY LOOP,The Village of Linden,Sumter,Aspen,769000,3,2,1904,3 Car Garage,Swimming Pool,28.79436877,-82.00078525,A,P,GEUFUN2wf1E,249880
S33V.44,5768 HENRY LOOP,The Village of Linden,Sumter,Jasmine,719555,3,2,1569,2 Car Garage,Swimming Pool,28.79545941,-82.00088266,A,P,8Pp_7d_Hd-c,250501
S35V.69,1829 ALTON AVE,The Village of Linden,Sumter,Bougainvillea,399000,3,2,1527,"2 Car, plus Golf Car Garage",,28.7943233,-81.99805415,A,P,,248757
S43V.16,5936 STORMS AVE,The Village of Linden,Sumter,Aspen,849900,3,2,2131,"2 Car, plus Golf Car Garage",Swimming Pool,28.78898596,-82.00117941,A,P,jABwBB-BqMk,250295
S732.30,1971 RIEGER RD,The Village of Linden,Sumter,Winslow,424500,3,2,1735,2 Car Garage,,28.79679288,-82.00199793,A,P,,250047
S732.50,1946 RIEGER RD,The Village of Linden,Sumter,Arlington,699950,3,2,1646,"2 Car, plus Golf Car Garage",Swimming Pool,28.79643289,-82.00127292,A,P,P_d-opX8Xxw,249720
S733.52,1972 CROMER PL,The Village of Linden,Sumter,Opal,305000,2,2,1227,"1 Car, plus Golf Car Garage",,28.79436037,-82.00200333,A,P,,250257
S36V.47,5822 HICKEY WAY,The Village of Monarch Grove,Sumter,Hammock,360000,3,2,1611,2 Car Garage,,28.79172763,-81.99283073,A,P,,250523
S36V.73,1621 MANSERRA ST,The Village of Monarch Grove,Sumter,Hammock,364900,3,2,1611,2 Car Garage,,28.79034649,-81.99251112,A,P,,248517
S38V.55,1572 WILLIAMSON DR,The Village of Monarch Grove,Sumter,Mossy Oak,699711,3,3,1944,"2 Car, plus Golf Car Garage",,28.78781938,-81.99064798,A,P,KBnI2NgqGDQ,248346
S38V.77,6021 POLACHECK PL,The Village of Monarch Grove,Sumter,Tall Pine,419000,3,2,1459,"2 Car, plus Golf Car Garage",,28.78641332,-81.98995768,A,P,,250104
S38V.86,1535 JENKS CT,The Village of Monarch Grove,Sumter,Sarasota,899999,3,2.5,2628,3 + Car Garage,,28.78729597,-81.98963189,A,P,84R9_TM3xUQ,250020
S39V.17,1688 NATALINO RD,The Village of Monarch Grove,Sumter,Tall Pine,419000,3,2,1459,"2 Car, plus Golf Car Garage",,28.78655204,-81.99399665,A,P,,249599
S39V.80,1641 KNUDSON RUN,The Village of Monarch Grove,Sumter,Wisteria,390000,3,2,1569,2 Car Garage,,28.78577138,-81.99265133,A,P,,250398
S42V.11,5922 FLINT LOOP,The Village of Monarch Grove,Sumter,Linden,969000,3,3,2119,"2 Car, plus Golf Car Garage",,28.7899195,-81.99948863,A,P,XZ0bE00Fzpw,249172
S42V.30,5848 FLINT LOOP,The Village of Monarch Grove,Sumter,Iris,950000,3,2,1914,"2 Car, plus Golf Car Garage",Swimming Pool,28.79016103,-81.99651446,A,P,,249436
S42V.55,5941 FLINT LOOP,The Village of Monarch Grove,Sumter,Wisteria,387387,3,2,1569,2 Car Garage,,28.78906963,-81.99891043,A,P,,250368
S735.9,1648 MCDONALD CT,The Village of Monarch Grove,Sumter,Topaz,309997,2,2,1203,2 Car Garage,,28.79050593,-81.99272093,A,P,xH_bsMaybKs,249950
S736.15,1808 TRIMARCHE TER,The Village of Monarch Grove,Sumter,Arlington,449900,3,2,1633,2 Car Garage,,28.78845873,-81.99726646,A,P,,250547
S736.23,1774 TRIMARCHE TER,The Village of Monarch Grove,Sumter,Charlotte,570000,3,2,1484,2 Car Garage,Swimming Pool,28.78872937,-81.99619998,A,P,k4KI-WSaavw,249947
S736.32,5913 REID RD,The Village of Monarch Grove,Sumter,Winslow,695000,3,2,1977,2 Car Garage,,28.78965037,-81.99580538,A,P,lq9hFgel7Dc,250575
S737.43,1994 CERNY CT,The Village of Monarch Grove,Sumter,Bonifay,385000,3,2,1484,2 Car Garage,,28.78836163,-82.00251175,A,P,,250090
S740.13,6044 MARLATT CT,The Village of Monarch Grove,Sumter,Hammock,385700,3,2,1611,2 Car Garage,,28.78635445,-81.99517798,A,P,,250437
S739.31,6047 ALLEN AVE,The Village of Monarch Grove,Sumter,Ruby,329900,2,2,1148,"1 Car, plus Golf Car Garage",,28.78645581,-81.99635728,A,P,,250522
S738.10,6052 BUDNY AVE,The Village of Monarch Grove,Sumter,Opal,289000,2,2,1227,"1 Car, plus Golf Car Garage",,28.78621427,-82.00108973,A,P,,249986
S30A.11,4774 CORDER RUN,The Village of DeLuna,Sumter,Modified Designer,599000,3,3,1652,,,28.81687243,-82.0206691,A,P,PiCqSRI2N4A,249597
S30A.21,4860 CORDER RUN,The Village of DeLuna,Sumter,Custom Premier,1070000,3,2,2016,,,28.81529513,-82.0195308,A,P,,249872
S30V.3,2590 CONSTANCE CT,The Village of DeLuna,Sumter,Zinnia,514900,3,3,2199,2 Car Garage,,28.81572927,-82.01901525,A,P,,249612
S31V.103,2783 ORTON RD,The Village of DeLuna,Sumter,Iris,535000,3,2,1918,"2 Car, plus Golf Car Garage",,28.81605993,-82.02414631,A,P,,250530
S730.7,4870 TATE GREGORY CT,The Village of DeLuna,Sumter,Emerald,324900,2,2,1266,"1 Car, plus Golf Car Garage",,28.81492845,-82.0250293,A,P,,249988
S731.53,2794 KILCREASE LOOP,The Village of DeLuna,Sumter,Destin,569900,3,2,1991,"2 Car, plus Golf Car Garage",,28.82062128,-82.02449844,A,P,,250153
S117V.19,3127 ELY CIR,The Village of DeLuna,Sumter,Laurel Oak-10,1195000,3,2,2342,"2 Car, plus Golf Car Garage",Swimming Pool,28.8273047,-82.03379368,A,P,OshQN11DSNw,250103
S117V.39,3037 LICCIARDELLO PATH,The Village of DeLuna,Sumter,Aspen,549000,3,2,1922,"2 Car, plus Golf Car Garage",,28.8243314,-82.03120223,A,P,,249104
S117V.130,3032 BRODEUR AVE,The Village of DeLuna,Sumter,Poplar,419900,3,2,1494,2 Car Garage,,28.82548604,-82.03095168,A,P,,250035
S119V.1,4577 WHITTINGTON CIR,The Village of DeLuna,Sumter,Woodside,889000,4,3,2276,"2 Car, plus Golf Car Garage",Swimming Pool,28.82416558,-82.03940591,A,P,0,249022
S119V.11,4539 WHITTINGTON CIR,The Village of DeLuna,Sumter,Bougainvillea,379900,3,2,1392,2 Car Garage,,28.82275776,-82.03820499,A,P,,249566
S119V.44,4433 WHITTINGTON CIR,The Village of DeLuna,Sumter,Poplar,398000,3,2,1494,2 Car Garage,,28.82420961,-82.03496663,A,P,,249884
S120V.52,4409 GARCHINSKY AVE,The Village of DeLuna,Sumter,Begonia,549000,3,2,2033,"2 Car, plus Golf Car Garage",,28.82586318,-82.03739037,A,P,,249734
S125V.17,3418 NISBET LOOP,The Village of DeLuna,Sumter,Jasmine,424976,3,2,1569,2 Car Garage,,28.82041099,-82.04147113,A,P,,250226
S125V.108,4681 WIGHTMAN CIR,The Village of DeLuna,Sumter,Mossy Oak,514900,3,3,1905,"2 Car, plus Golf Car Garage",,28.81966159,-82.04425825,A,P,,248022
S125V.142,3473 PARRIS PL,The Village of DeLuna,Sumter,Basswood,369500,3,2,1419,2 Car Garage,,28.82075041,-82.04311766,A,P,7CC7E5GHgdw,250052
S126V.17,4669 RAMSELL RD,The Village of DeLuna,Sumter,At Ease,382500,3,2,1472,2 Car Garage,,28.81987646,-82.03946162,A,P,5E75UE9XxMc,250229
S126V.35,4634 RAMSELL RD,The Village of DeLuna,Sumter,Hammock,365000,3,2,1631,2 Car Garage,,28.82039261,-82.04059032,A,P,,248808
S126V.42,4673 MONICA ST,The Village of DeLuna,Sumter,Anchor,389400,3,2,1547,"2 Car, plus Golf Car Garage",,28.81971617,-82.04019661,A,P,rsTxiLORCm4,249410
S131V.9,3225 RAYMA PL,The Village of DeLuna,Sumter,Anchor-V,399000,3,2,1527,"2 Car, plus Golf Car Garage",,28.83010643,-82.03632346,A,P,,249841
S133V.13,4200 COLLERETTE CT,The Village of DeLuna,Sumter,Ibis,769989,3,2,2112,"2 Car, plus Golf Car Garage",,28.83054447,-82.04175976,A,P,,248761
S133V.67,4193 BALCHARAN TER,The Village of DeLuna,Sumter,Zinnia,919900,3,3,1977,3 Car Garage,Swimming Pool,28.83149029,-82.04094635,A,P,,249684
S133V.124,4132 AUGUST LOOP,The Village of DeLuna,Sumter,Sequoia,362500,3,2,1535,2 Car Garage,,28.8329354,-82.04329717,A,P,1BCv0QldXH8,249812
S116V.4,4477 ELIJAH LOOP,The Village of DeLuna,Sumter,Charlotte,395900,3,2,1492,2 Car Garage,,28.824683,-82.02748948,A,P,,250278
S116V.10,4455 ELIJAH LOOP,The Village of DeLuna,Sumter,Charlotte,389000,3,2,1492,2 Car Garage,,28.82536008,-82.02764071,A,P,,249525
S121V.34,3230 MABEL TER,The Village of DeLuna,Sumter,Emerald,319000,2,2,1266,,,28.82390459,-82.03633501,A,P,,250014
S122V.4,4386 WARNELL LN,The Village of DeLuna,Sumter,Ruby,269900,2,2,1154,"1 Car, plus Golf Car Garage",,28.82673856,-82.03924959,A,P,,249697
S123V.26,3138 AUREA PL,The Village of DeLuna,Sumter,Mason,625000,4,3,2286,"2 Car, plus Golf Car Garage",,28.8239328,-82.03398667,A,P,whNiOjwStgw,249830
S134V.23,4126 NADIRA CT,The Village of DeLuna,Sumter,Winslow-C,449000,3,2,1969,"2 Car, plus Golf Car Garage",,28.83283868,-82.04101646,A,P,,249317
S135V.3,4112 GRADY TER,The Village of DeLuna,Sumter,Opal,279999,2,2,1240,"1 Car, plus Golf Car Garage",,28.833311,-82.0423234,A,P,,249779
S135V.17,3423 POSSEHL PL,The Village of DeLuna,Sumter,Haven,240500,2,2,979,"1 Car, plus Golf Car Garage",,28.83430952,-82.04178937,A,P,,250488
S135V.36,3423 MELISSA LN,The Village of DeLuna,Sumter,Emerald,309900,3,2,1440,"2 Car, plus Golf Car Garage",,28.83357962,-82.0418419,A,P,EfJKGOIXRE4,249077
S136V.61,4085 SILVANA WAY,The Village of DeLuna,Sumter,Retreat,254000,2,2,971,"1 Car, plus Golf Car Garage",,28.83394003,-82.04463349,A,P,,249824
S137V.22,3462 PIPER PL,The Village of DeLuna,Sumter,Charlotte,479600,3,2,1492,2 Car Garage,,28.82860837,-82.04361732,A,P,,249462
S137V.30,3498 PIPER PL,The Village of DeLuna,Sumter,Winslow-C,624500,3,2,1969,"2 Car, plus Golf Car Garage",,28.82770452,-82.0440025,A,P,YYUVZDOlKX0,249264
S124V.11,4521 SAMANTHA CT,The Village of DeLuna,Sumter,Monroe,629900,3,2,1966,"2 Car, plus Golf Car Garage",,28.82340053,-82.03954247,A,P,,250111
S124V.34,4550 BROOKE LN,The Village of DeLuna,Sumter,Hillsdale,769900,3,3,1905,"2 Car, plus Golf Car Garage",Swimming Pool,28.82249828,-82.04020949,A,P,,248590
S127V.33,3324 DAVIS TER,The Village of DeLuna,Sumter,Emerald,319000,3,2,1440,"1 Car, plus Golf Car Garage",,28.81817117,-82.03917675,A,P,,250551
S128V.33,4463 NOAH PL,The Village of DeLuna,Sumter,Charlotte,409900,3,2,1492,2 Car Garage,,28.82492488,-82.04114403,A,P,,249506
S44A.18,1069 WILDER PATH,The Village of Chitty Chatty,Sumter,Woodside,1095000,4,3,2568,"2 Car, plus Golf Car Garage",,28.81585335,-81.97747685,A,P,s-Saex-scyk,250327
S44A.37,954 SUMNER LOOP,The Village of Chitty Chatty,Sumter,Bridgeport,749500,3,2.5,2067,"2 Car, plus Golf Car Garage",,28.81497943,-81.97383064,A,P,,249837
S741.14,947 COUTURE ST,The Village of Chitty Chatty,Sumter,Bonifay,405000,3,2,1484,2 Car Garage,,28.8142536,-81.97382774,A,P,tV_1vnIOXxI,249162
S741.16,955 COUTURE ST,The Village of Chitty Chatty,Sumter,Belmore,529727,3,2,1699,2 Car Garage,,28.81409289,-81.97403277,A,P,yjWNw0l_XyA,249581
S741.21,4920 MACINTYRE LN,The Village of Chitty Chatty,Sumter,Bonifay,369000,3,2,1484,2 Car Garage,,28.8135695,-81.97399721,A,P,,248805
S744.26,4582 LAZDOWSKI WAY,The Village of Chitty Chatty,Sumter,Charlotte,529900,3,2,1492,2 Car Garage,,28.82134433,-81.97107597,A,P,,249124
S744.49,974 JAY ST,The Village of Chitty Chatty,Sumter,Montclair,449000,3,2,1647,2 Car Garage,,28.8221519,-81.97458247,A,P,,249345
S46V.132,5440 DRAY DR,The Village of Bradford,Sumter,Mossy Oak,559000,3,3,1905,"2 Car, plus Golf Car Garage",,28.80165835,-81.97524517,A,P,,250424
S47V.97,5572 SHARPIN ST,The Village of Bradford,Sumter,Bougainvillea,374900,3,2,1392,"2 Car, plus Golf Car Garage",,28.79784666,-81.975162,A,P,,249409
S60V.10,5201 BUCK ST,The Village of Bradford,Sumter,Ottawa,1196000,3,3,1892,"2 Car, plus Golf Car Garage",Swimming Pool,28.8068991,-81.97904559,A,P,,250567
S60V.68,1159 CHARLENE PL,The Village of Bradford,Sumter,Charlotte,409999,3,2,1484,2 Car Garage,,28.80707007,-81.97944638,A,P,H2x2zNpYniY,249893
S60V.73,1160 CHARLENE PL,The Village of Bradford,Sumter,Newport,418000,3,2,1473,2 Car Garage,,28.80669333,-81.97955014,A,P,,249247
S60V.80,1174 TERI TER,The Village of Bradford,Sumter,Avondale,439900,3,2,1699,2 Car Garage,,28.80603037,-81.9799521,A,P,,249513
S67V.4,479 KAYLA CT,The Village of Citrus Grove,Sumter,Cottage,239000,1,1,828,"1 Car, plus Golf Car Garage",,28.78645961,-81.96030294,A,P,,249977
S67V.43,6067 GUY TER,The Village of Citrus Grove,Sumter,Nest,244900,2,2,971,,,28.78582169,-81.96023031,A,P,,250272
S67V.48,6089 GUY TER,The Village of Citrus Grove,Sumter,Haven,254500,2,2,963,,,28.78527164,-81.96023249,A,P,,250110
S58V.100,337 JAMESON LOOP,The Village of Citrus Grove,Sumter,Iris,495000,3,2,1914,"2 Car, plus Golf Car Garage",,28.78320608,-81.95588518,A,P,,250250
S59V.24,6305 WINDHAM WAY,The Village of Citrus Grove,Sumter,Seabreeze,398000,3,2,1496,2 Car Garage,,28.78017461,-81.95399743,A,P,,249751
S59V.88,295 PELCHAT PL,The Village of Citrus Grove,Sumter,Sandpiper,319000,3,2,1361,"1 Car, plus Golf Car Garage",,28.77987232,-81.95526848,A,P,,248073
S71V.3,6219 MULLIGAN RUN,The Village of Citrus Grove,Sumter,Bridgeport,998800,3,2.5+,2099,"2 Car, plus Golf Car Garage",Swimming Pool,28.78307185,-81.96217693,A,P,,248532
S71V.14,6144 GRASSO CIR,The Village of Citrus Grove,Sumter,Premier,1159000,4,3.5,3436,3 Car Garage,,28.78440366,-81.96324468,A,P,-fYmNnFtytE,248492
S71V.116,6390 DANIELSON LOOP,The Village of Citrus Grove,Sumter,Iris,515000,3,2,1918,"2 Car, plus Golf Car Garage",,28.78272679,-81.96282758,A,P,,249337
S71V.132,6363 DANIELSON LOOP,The Village of Citrus Grove,Sumter,Tamarind,439500,3,2,1554,2 Car Garage,,28.78223742,-81.96380135,A,P,cI-ZU9eY5T0,250230
S71V.146,6173 DANIELSON LOOP,The Village of Citrus Grove,Sumter,Begonia,639900,3,2,2061,"2 Car, plus Golf Car Garage",,28.78321519,-81.96338929,A,P,zCvYxxY343E,250493
S71V.168,587 JAMES RD,The Village of Citrus Grove,Sumter,Jasmine,434900,3,2,1569,"2 Car, plus Golf Car Garage",,28.78109878,-81.96350951,A,P,,250453
S71V.204,6352 MERHOTTEIN LOOP,The Village of Citrus Grove,Sumter,Woodside,999999,4,3,2451,3 + Car Garage,Swimming Pool,28.77945847,-81.96281809,A,P,S_7RWtvGlrM,249598
S74V.12,5992 MULLIGAN RUN,The Village of Citrus Grove,Sumter,Mossy Oak,1299000,3,3,2017,"2 Car, plus Golf Car Garage",Swimming Pool,28.78634866,-81.96663811,A,P,HGTBNowBIQg,249314
S74V.32,6082 MULLIGAN RUN,The Village of Citrus Grove,Sumter,Custom Premier,1495000,4,3,2355,3 Car Garage,Swimming Pool,28.78299762,-81.96849447,A,P,CUUAsk5tkYc,249585
S74V.116,6124 SINGH LN,The Village of Citrus Grove,Sumter,Loblolly,419000,3,2,1516,"2 Car, plus Golf Car Garage",,28.78424188,-81.96633733,A,P,9ZRTBGnnGBQ,250325
S74V.138,6075 MULLIGAN RUN,The Village of Citrus Grove,Sumter,Zinnia,987900,3,3,2037,,Swimming Pool,28.78298266,-81.9679879,A,P,h_aNsTSCkgg,250487
S68V.8,357 LOGAN ST,The Village of Citrus Grove,Sumter,Topaz,269957,2,2,1203,2 Car Garage,,28.78256809,-81.9568291,A,P,,249946
S68V.38,6225 DINGMAN WAY,The Village of Citrus Grove,Sumter,Haven,268868,2,2,963,"1 Car, plus Golf Car Garage",,28.78195687,-81.95699294,A,P,,249920
S70V.44,6262 SIVERSON TER,The Village of Citrus Grove,Sumter,Topaz,299000,2,2,1203,2 Car Garage,,28.78116751,-81.96063274,A,P,,249933
S72V.19,652 PAXTON CT,The Village of Citrus Grove,Sumter,Grand Rapids,755000,3,3,2150,"2 Car, plus Golf Car Garage",,28.78028299,-81.96544548,A,P,,248923
S72V.45,633 PAXTON CT,The Village of Citrus Grove,Sumter,Eaton,450000,3,2,1645,2 Car Garage,,28.78026815,-81.9646639,A,P,,249582
S13F.12,3578 ADAMSVILLE AVE,The Village of Hammock at Fenney,Sumter,Gardenia,949800,3,2,2128,"2 Car, plus Golf Car Garage",,28.79514434,-82.04645857,A,P,QHnzq6pVa_k,250264
S13F.33,3653 ADAMSVILLE AVE,The Village of Hammock at Fenney,Sumter,Mossy Oak,499950,3,3,1928,"2 Car, plus Golf Car Garage",,28.79393937,-82.04876577,A,P,,249413
S13F.48,5693 BLANCHARD LN,The Village of Hammock at Fenney,Sumter,Zinnia,995000,3,3,1977,3 Car Garage,Swimming Pool,28.79529013,-82.04849054,A,P,,248837
S139V.8,3816 STEPHANIE WAY,The Village of Hammock at Fenney,Sumter,Seabreeze,360000,3,2,1468,2 Car Garage,,28.79009289,-82.05359387,A,P,,250503
S140V.43,6014 PHEIL PATH,The Village of Hammock at Fenney,Sumter,Bridgeport,899000,3,2.5,2147,"2 Car, plus Golf Car Garage",,28.78737537,-82.05266938,A,P,,248872
S140V.76,3759 COYNE LOOP,The Village of Hammock at Fenney,Sumter,Laurel Oak,985000,3,2,2446,"2 Car, plus Golf Car Garage",,28.7901871,-82.05119994,A,P,,249209
S141V.7,3687 CAUSEY CT,The Village of Hammock at Fenney,Sumter,Begonia-10,774999,3,2,2114,"2 Car, plus Golf Car Garage",,28.78825421,-82.04954665,A,P,,249640
S628.3,3702 SUGARBERRY LN,The Village of Hammock at Fenney,Sumter,Winslow,519900,3,2,1986,"2 Car, plus Golf Car Garage",,28.79381186,-82.04991363,A,P,,249066
S628.21,5766 MARROT TER,The Village of Hammock at Fenney,Sumter,Charlotte,545900,3,2,1492,2 Car Garage,,28.79342991,-82.05112531,A,P,,249417
S628.34,5746 BRENNAN CT,The Village of Hammock at Fenney,Sumter,Avondale,429900,3,2,1699,2 Car Garage,,28.79390237,-82.05029105,A,P,,249993
S629.60,5526 WIGGINS TER,The Village of Hammock at Fenney,Sumter,Arlington,549000,3,2,1633,2 Car Garage,,28.79899055,-82.04463736,A,P,,250119
S138V.16,5814 BAMBOO AVE,The Village of Hammock at Fenney,Sumter,Emerald,279900,3,2,1426,"1 Car, plus Golf Car Garage",,28.79216466,-82.05359894,A,P,,249703
S82V.24,5668 BRETT WAY,The Village of Hawkins,Sumter,Modified Designer,649900,3,3,1872,3 Car Garage,,28.79585203,-81.9825954,A,P,,250100
S87V.55,5422 THOME LOOP,The Village of Hawkins,Sumter,Sassafras,359500,3,2,1419,2 Car Garage,,28.79865134,-81.98600954,A,P,,250450
S88V.51,1349 FRAZIER WAY,The Village of Hawkins,Sumter,Linden,1349000,3,3,2531,"2 Car, plus Golf Car Garage",Swimming Pool,28.79405342,-81.98468348,A,P,FOS-B8S6Les,250330
S88V.81,1328 FRANCESCA PL,The Village of Hawkins,Sumter,Tall Pine,359295,3,2,1459,2 Car Garage,,28.7930919,-81.98417087,A,P,-ZO6mFrrqT0,249621
S88V.126,5756 JOSEPHINE CT,The Village of Hawkins,Sumter,Whispering Pine,419900,3,2,1694,"2 Car, plus Golf Car Garage",,28.79351538,-81.98724934,A,P,,250527
S92V.9,1648 PUNTA RASSA LN,The Village of Hawkins,Sumter,Pebble Beach-V,367000,3,2,1431,2 Car Garage,,28.79702631,-81.99283274,A,P,1-dQR-HNb4Q,249328
S92V.10,5596 EVERTON CT,The Village of Hawkins,Sumter,Seabreeze-V,375000,3,2,1496,"2 Car, plus Golf Car Garage",,28.79723251,-81.99309848,A,P,,248455
S94V.24,5565 MELVIN DR,The Village of Hawkins,Sumter,Iris,864900,3,2,2064,"2 Car, plus Golf Car Garage",,28.79817068,-81.99145846,A,P,BFEz2w1J0jA,250178
S94V.32,1597 WAYCROSS PL,The Village of Hawkins,Sumter,Wisteria,415000,3,2,1564,2 Car Garage,,28.79733016,-81.99178001,A,P,,249915
S83V.30,5519 BRITTANY TER,The Village of Hawkins,Sumter,Charlotte,349900,3,2,1484,2 Car Garage,,28.79919171,-81.97914888,A,P,,249474
S85V.18,5504 ANTHONY TER,The Village of Hawkins,Sumter,Topaz,285555,2,2,1203,2 Car Garage,,28.79946908,-81.98508133,A,P,tdsUk6cbTx0,250273
S89V.18,1296 MIZELL AVE,The Village of Hawkins,Sumter,Haven,266000,2,2,963,"1 Car, plus Golf Car Garage",,28.79009876,-81.98332306,A,P,,249780
S89V.19,1300 MIZELL AVE,The Village of Hawkins,Sumter,Retreat,244900,2,2,973,,,28.790125,-81.98344655,A,P,WPHsqlFwyhE,249875
S89V.53,1296 TATE TER,The Village of Hawkins,Sumter,Emerald,274800,3,2,1426,"1 Car, plus Golf Car Garage",,28.79067179,-81.98319917,A,P,,250294
S91V.44,1472 EMMA PL,The Village of Hawkins,Sumter,Haven,254117,2,2,979,"1 Car, plus Golf Car Garage",,28.79266834,-81.98809752,A,P,,250098
S93V.26,5689 VIRGIL PL,The Village of Hawkins,Sumter,Topaz,318900,2,2,1223,2 Car Garage,,28.79458034,-81.99062406,A,P,,250009
S75V.15,837 HUBBARD LOOP,The Village of Cason Hammock,Sumter,Indigo,1699000,3,3,2013,2 Car Garage,,28.78892683,-81.97073725,A,P,RTKQoDYz3-E,249440
S75V.43,1104 SKATES ST,The Village of Cason Hammock,Sumter,Lantana-10,875000,3,2,2112,,,28.78841128,-81.97783332,A,P,,248338
S77V.51,958 TRIFU TER,The Village of Cason Hammock,Sumter,Sycamore,484800,3,2,1836,"2 Car, plus Golf Car Garage",,28.7876489,-81.97482634,A,P,,248984
S77V.82,881 BOWDEN RD,The Village of Cason Hammock,Sumter,Jasmine,675000,3,2,1569,2 Car Garage,Swimming Pool,28.7864592,-81.97333774,A,P,,249864
S77V.91,862 BOWDEN RD,The Village of Cason Hammock,Sumter,Sunflower,459800,3,2,1950,"2 Car, plus Golf Car Garage",,28.78594257,-81.97268999,A,P,,249168
S77V.102,1077 OUTRIDGE LOOP,The Village of Cason Hammock,Sumter,Zinnia,549900,3,3,1977,"2 Car, plus Golf Car Garage",,28.78568688,-81.97268075,A,P,8xpQiDjP0vQ,248841
S78V.11,5991 HOLTON AVE,The Village of Cason Hammock,Sumter,Eaton,469900,3,2,1645,2 Car Garage,,28.78761395,-81.975762,A,P,,249220
S48V.27,1110 EBLING LOOP,The Village of St. Catherine,Sumter,Zinnia,549000,3,3,1977,2 Car Garage,,28.79133558,-81.97431085,A,P,,249431
S48V.55,992 EBLING LOOP,The Village of St. Catherine,Sumter,Laurel Oak,997000,3,2,2400,"2 Car Garage>..<2 Car, plus Golf Car Garage",Swimming Pool,28.79360236,-81.97498645,A,P,,249701
S49V.115,5692 UMLAND LN,The Village of St. Catherine,Sumter,Mossy Oak,674900,3,3,1905,"2 Car, plus Golf Car Garage",,28.79497435,-81.96708731,A,P,EpLAGTgDd8g,250370
S51V.65,5767 AMANDA TER,The Village of St. Catherine,Sumter,Iris,524400,3,2,1940,"2 Car, plus Golf Car Garage",,28.79313798,-81.9638015,A,P,,249143
S65V.28,5926 WALTERS CT,The Village of St. Catherine,Sumter,Durham,359900,2,2,1290,2 Car Garage,,28.78939153,-81.96650436,A,P,1F0040FMbEI,250329
S65V.29,5922 WALTERS CT,The Village of St. Catherine,Sumter,Charlotte,389000,3,2,1484,2 Car Garage,,28.78949446,-81.96646028,A,P,,250358
S99V.66,2448 YOUNGMANN LOOP,The Village of St. Johns,Sumter,Bougainvillea,385000,3,2,1392,2 Car Garage,,28.81819061,-82.01604254,A,P,q_rjb0VJXTw,248487
S99V.76,2404 YOUNGMANN LOOP,The Village of St. Johns,Sumter,Begonia,624900,3,2,2048,"2 Car, plus Golf Car Garage",,28.81679234,-82.01548589,A,P,,250171
S96V.38,5453 STALEY ST,The Village of St. Johns,Sumter,Avondale,528000,3,2,1696,"2 Car, plus Golf Car Garage",,28.80086562,-81.99073423,A,P,Dg8M46K4d6E,249931
S96V.48,5460 LACROIX TER,The Village of St. Johns,Sumter,Charlotte,384117,3,2,1492,2 Car Garage,,28.80057802,-81.99161206,A,P,,250497
S96V.58,5471 GUICE AVE,The Village of St. Johns,Sumter,Charlotte,429000,3,2,1492,2 Car Garage,,28.80028556,-81.99193331,A,P,,250074
S98V.10,4964 OKAHUMPKA RUN,The Village of St. Johns,Sumter,Hudson,849000,3,2,1918,"2 Car, plus Golf Car Garage",Swimming Pool,28.81182644,-82.01030335,A,P,,249319
S98V.58,4981 OKAHUMPKA RUN,The Village of St. Johns,Sumter,Eaton,459900,3,2,1645,2 Car Garage,,28.81219913,-82.00940046,A,P,,250247
S100V.33,2363 ELIN PL,The Village of St. Johns,Sumter,Emerald,319000,2,2,1280,"1 Car, plus Golf Car Garage",,28.81544786,-82.01276917,A,P,,250570
S100V.38,4850 ANGELA AVE,The Village of St. Johns,Sumter,Topaz,299500,2,2,1223,2 Car Garage,,28.81547603,-82.0133783,A,P,,249570
S104V.6,4410 STONY RUN,The Village of Richmond,Sumter,Shearwater,897500,3,2,2032,"2 Car, plus Golf Car Garage",,28.82617144,-82.01911115,A,P,Kwln4Ok9Lq0,249458
S105V.69,2783 RANDOLPH LOOP,The Village of Richmond,Sumter,Egret,1399900,3,3,2596,"2 Car, plus Golf Car Garage",Swimming Pool,28.82788771,-82.02425677,A,P,,248966
S105V.103,4597 SHOCKOE CIR,The Village of Richmond,Sumter,Dove,599000,3,3,1920,"2 Car, plus Golf Car Garage",,28.82453412,-82.0208424,A,P,,248441
S105V.133,4497 SHOCKOE CIR,The Village of Richmond,Sumter,Lily,574900,3,2,1975,"2 Car, plus Golf Car Garage",,28.82374627,-82.02128258,A,P,MVLjV1kdnyU,250513
S110V.21,2901 OSBORNE ST,The Village of Richmond,Sumter,Loblolly,409000,3,2,1516,2 Car Garage,,28.83263168,-82.02765863,A,P,bWjonPWhVMM,249672
S110V.54,4266 LIBBIE LN,The Village of Richmond,Sumter,Ibis,850000,3,2,2016,"2 Car, plus Golf Car Garage",,28.82955056,-82.0260735,A,P,dP-RMpB_A1Q,250411
S110V.96,2915 CHIMBORAZO WAY,The Village of Richmond,Sumter,Tall Pine,375000,3,2,1459,2 Car Garage,,28.83210483,-82.02700645,A,P,zAEVI3tb3io,249587
S110V.120,2795 CHIMBORAZO WAY,The Village of Richmond,Sumter,Begonia,650000,3,2,2033,"2 Car, plus Golf Car Garage",,28.83008139,-82.02640402,A,P,,249799
S110V.125,2829 CHIMBORAZO WAY,The Village of Richmond,Sumter,Lilac,557900,3,2,1921,"2 Car, plus Golf Car Garage",,28.83054136,-82.02580133,A,P,,249589
S112V.14,2816 NAVY HILL CIR,The Village of Richmond,Sumter,Bougainvillea,389900,3,2,1392,2 Car Garage,,28.83525232,-82.02537271,A,P,,249253
S112V.91,2848 CARYTOWN LOOP,The Village of Richmond,Sumter,Hummingbird,479000,4,2,2025,2 Car Garage,,28.83570434,-82.02624796,A,P,,250031
S112V.95,2759 CARYTOWN LOOP,The Village of Richmond,Sumter,Whip-Poor-Will,409900,3,2,1476,2 Car Garage,,28.83628217,-82.02365823,A,P,zj2gJzw1uuI,250387
S115V.38,4271 WIDMANN PL,The Village of Richmond,Sumter,Dove,550000,3,3,1924,"2 Car, plus Golf Car Garage",,28.83236266,-82.0200274,A,P,wtKpPvk17ys,249996
S115V.52,2636 QUELLY RD,The Village of Richmond,Sumter,Gilchrist-C,425000,3,2,1336,2 Car Garage,,28.83176207,-82.02023099,A,P,,249623
S106V.2,4314 CAMEO CIR,The Village of Richmond,Sumter,Seabreeze-V,399800,3,2,1505,"2 Car, plus Golf Car Garage",,28.82698362,-82.02557146,A,P,,249305
S106V.5,4332 CAMEO CIR,The Village of Richmond,Sumter,Anchor-V,429900,3,2,1527,2 Car Garage,,28.82648858,-82.02557468,A,P,,249405
S106V.16,4438 CAMEO CIR,The Village of Richmond,Sumter,At Ease-V,389999,3,2,1472,2 Car Garage,,28.82641499,-82.02451953,A,P,,249272
S107V.29,2863 CHARITY LOOP,The Village of Richmond,Sumter,Haven,265000,2,2,979,"1 Car, plus Golf Car Garage",,28.82722451,-82.02607124,A,P,,250301
S108V.1,2938 DORIS CT,The Village of Richmond,Sumter,Emerald,369000,2,2,1280,"1 Car, plus Golf Car Garage",,28.82896461,-82.02835277,A,P,,250026
S108V.6,2962 DORIS CT,The Village of Richmond,Sumter,Opal,309000,2,2,1240,"1 Car, plus Golf Car Garage",,28.82872061,-82.02912889,A,P,,250427
S108V.17,4344 BROAD ST,The Village of Richmond,Sumter,Topaz,298000,2,2,1206,2 Car Garage,,28.82783593,-82.02796362,A,P,,250320
S109V.28,4212 MALVERN CT,The Village of Richmond,Sumter,Belleville,495000,3,2,1554,2 Car Garage,,28.83085406,-82.02842686,A,P,,249828
S114V.2,3987 MANCHESTER AVE,The Village of Richmond,Sumter,Emerald,358800,3,2,1440,"1 Car, plus Golf Car Garage",,28.83631455,-82.02559965,A,P,,250531
S114V.6,2810 VENABLE CT,The Village of Richmond,Sumter,Emerald,319000,2,2,1280,"1 Car, plus Golf Car Garage",,28.83650874,-82.02514577,A,P,t6jTrDI4o28,250473
S114V.15,3943 MUNFORD TER,The Village of Richmond,Sumter,Moonstone,339700,2,2,1295,"1 Car, plus Golf Car Garage",,28.83751928,-82.02492924,A,P,,250211
S114V.77,3939 KANAWHA PL,The Village of Richmond,Sumter,Topaz,324900,2,2,1206,2 Car Garage,,28.83768421,-82.02625232,A,P,,248440
S114V.86,3985 KANAWHA PL,The Village of Richmond,Sumter,Ruby,339000,2,2,1148,,,28.83665683,-82.02625813,A,P,u5PRP4W3MSs,250265
S113V.11,3116 MONUMENT WAY,The Village of Richmond,Sumter,Montclair,434800,3,2,1647,2 Car Garage,,28.83413886,-82.03320983,A,P,,250201
S113V.27,3135 FOUSHEE LOOP,The Village of Richmond,Sumter,Charlotte,545900,3,2,1492,2 Car Garage,,28.83499355,-82.03347307,A,P,,249141
S142V.5,4116 BOATWRIGHT AVE,The Village of Richmond,Sumter,Hudson,799000,3,2,1953,"2 Car, plus Golf Car Garage",Swimming Pool,28.83348403,-82.02025981,A,P,,250003
L41V.57,6420 BRIDGET AVE,The Village of Newell,Lake,Tall Pine,379555,3,2,1477,2 Car Garage,,28.77666289,-81.94913467,A,P,PlUsUWXqyJs,250210
L41V.68,6366 BRIDGET AVE,The Village of Newell,Lake,Dove,549000,3,3,1920,"2 Car, plus Golf Car Garage",,28.7781796,-81.95015743,A,P,Y89_kUIkHBQ,248502
L41V.69,6358 BRIDGET AVE,The Village of Newell,Lake,Mossy Oak,567800,3,3,1923,"2 Car, plus Golf Car Garage",,28.77838592,-81.95017779,A,P,,249407
L41V.88,1986 OPPENHEIMER CT,The Village of Newell,Lake,Oriole,545000,3,3,1892,"2 Car, plus Golf Car Garage",,28.77980616,-81.95049981,A,P,,250285
L44V.14,1867 VANBECK CIR,The Village of Newell,Lake,Bridgeport,1195000,3,2.5,2274,"2 Car, plus Golf Car Garage",,28.77497988,-81.94544981,A,P,8wyLRg4GsLc,250010
L44V.34,1687 COLLEEN CT,The Village of Newell,Lake,Whip-Poor-Will,499555,3,2,1477,"2 Car, plus Golf Car Garage",,28.77179614,-81.9423944,A,P,yAsHg_KTLqY,250183
L44V.52,6630 HOLOVAK TER,The Village of Newell,Lake,Sequoia,442500,3,2,1530,"2 Car, plus Golf Car Garage",,28.77207749,-81.94621767,A,P,yjbhhlECbW0,249765
L44V.124,6609 HOLOVAK TER,The Village of Newell,Lake,Kingfisher,485000,3,2,1944,"2 Car, plus Golf Car Garage",,28.77277276,-81.94625769,A,P,,250491
L48V.82,1738 VANBECK CIR,The Village of Newell,Lake,Oriole,849000,3,3,1892,"2 Car, plus Golf Car Garage",Swimming Pool,28.77127696,-81.94212105,A,P,-yG-heYsGGg,250176
L49V.84,2053 CHRISTIANS CT,The Village of Newell,Lake,Mockingbird,648000,3,2,1954,"2 Car, plus Golf Car Garage",,28.77596107,-81.9524797,A,P,,249869
L49V.106,2073 POSPISIL AVE,The Village of Newell,Lake,Dove,529000,3,3,1927,"2 Car, plus Golf Car Garage",,28.77539235,-81.95313478,A,P,,249050
L51V.89,6714 NEWELL LOOP,The Village of Newell,Lake,Bluebird,429900,3,2,1711,"2 Car, plus Golf Car Garage",,28.76887031,-81.94913993,A,P,9ZB_eoIoKiA,249041
L42V.20,1941 RAST RD,The Village of Newell,Lake,Emerald,309900,2,2,1298,"1 Car, plus Golf Car Garage",,28.77645907,-81.94951998,A,P,rxw1SddXytY,250195
L42V.33,1906 HUX CT,The Village of Newell,Lake,Haven,259000,2,2,979,"1 Car, plus Golf Car Garage",,28.77533365,-81.94835866,A,P,,250087
L43V.38,6573 MASON PL,The Village of Newell,Lake,Durham,369000,2,2,1290,2 Car Garage,,28.77378599,-81.94787082,A,P,,250220
L46V.38,6676 SERWATT ST,The Village of Newell,Lake,Opal,293000,2,2,1227,"1 Car, plus Golf Car Garage",,28.77106208,-81.94561328,A,P,,250426
L50V.37,6504 GAVANNI ST,The Village of Newell,Lake,Montclair,389999,3,2,1662,2 Car Garage,,28.77514466,-81.95091993,A,P,,250259
L53V.3,6647 MARY LOOP,The Village of Newell,Lake,Seabreeze-V,449000,3,2,1525,2 Car Garage,,28.77089375,-81.95167743,A,P,d7ctWQmAjz8,250242
L54V.32,1946 DONNA AVE,The Village of Newell,Lake,Opal,299000,2,2,1227,"1 Car, plus Golf Car Garage",,28.76776824,-81.94995287,A,P,Gtd_yrAV2ek,248768
L55V.54,6772 MICKYLEE RUN,The Village of Newell,Lake,Eaton,425000,3,2,1558,2 Car Garage,,28.76847813,-81.94870945,A,P,,248736
L56V.54,6931 MINCHEW CIR,The Village of Lake Denham,Lake,Peacock,398500,3,2,1542,2 Car Garage,,28.76453718,-81.9419537,A,P,,250040
L56V.58,6953 MINCHEW CIR,The Village of Lake Denham,Lake,Kingfisher,479999,3,2,1944,"2 Car, plus Golf Car Garage",,28.76380056,-81.9420218,A,P,Ym577HlgUFs,249145
L56V.65,7007 MINCHEW CIR,The Village of Lake Denham,Lake,Whip-Poor-Will,399000,3,2,1477,2 Car Garage,,28.76300537,-81.94303545,A,P,oGuDhffOxFI,250224
L56V.109,6879 TINA ST,The Village of Lake Denham,Lake,Hidden Cove,375000,3,2,1492,"2 Car, plus Golf Car Garage",,28.76576139,-81.9425485,A,P,,249522
L56V.136,7022 MINCHEW CIR,The Village of Lake Denham,Lake,Spoonbill,549000,3,2,2067,3 Car Garage,,28.76302641,-81.94351004,A,P,,250479
L60V.6,6996 DWIGHT DR,The Village of Lake Denham,Lake,Dove,810000,3,3,1905,"2 Car, plus Golf Car Garage",Swimming Pool,28.76317135,-81.94090006,A,P,u8WVTcwZfUk,249530
L60V.63,1645 MCLUCAS LN,The Village of Lake Denham,Lake,Mockingbird,449000,3,2,1954,"2 Car, plus Golf Car Garage",,28.76187668,-81.94107148,A,P,,250478
L60V.79,1580 ROWELL ST,The Village of Lake Denham,Lake,Sandhill Crane,399000,3,2,1450,2 Car Garage,,28.76074146,-81.93980042,A,P,,249686
L60V.104,6995 DWIGHT DR,The Village of Lake Denham,Lake,Mossy Oak,699900,3,3,2006,"2 Car, plus Golf Car Garage",,28.7628043,-81.9407094,A,P,,250155
L60V.113,1560 PEAKMAN RD,The Village of Lake Denham,Lake,Dove,674900,3,3,1905,"2 Car, plus Golf Car Garage",,28.76197453,-81.9392498,A,P,ckH-8wgHKEI,249665
L63V.17,1431 GUILLERMINA LOOP,The Village of Lake Denham,Lake,Kestrel,498000,4,2,1971,"2 Car, plus Golf Car Garage",,28.75955549,-81.93493669,A,P,,249403
L63V.36,1443 JEREMY CIR,The Village of Lake Denham,Lake,Whip-Poor-Will,359000,3,2,1477,2 Car Garage,,28.75621367,-81.93732761,A,P,P6w2z-lWWA0,247350
L63V.56,7155 NAMAN CT,The Village of Lake Denham,Lake,Spoonbill,549000,3,2,2067,3 Car Garage,,28.75907465,-81.93580529,A,P,,249571
L63V.73,1386 GUILLERMINA LOOP,The Village of Lake Denham,Lake,Cormorant,550000,3,2,1911,3 Car Garage,,28.75820561,-81.93500605,A,P,w9oBXTDHpoI,250345
L63V.83,1508 JEREMY CIR,The Village of Lake Denham,Lake,Sandhill Crane,397500,3,2,1450,2 Car Garage,,28.75810273,-81.93703007,A,P,TSAlTPeSnPs,249804
L65V.6,7078 EMILINE TER,The Village of Lake Denham,Lake,Songbird,998500,3,3,2034,"2 Car, plus Golf Car Garage",Swimming Pool,28.7608474,-81.93598095,A,P,T1iuzjXMm6o,250443
L65V.8,7058 EMILINE TER,The Village of Lake Denham,Lake,Robin,749000,4,3,2289,"2 Car, plus Golf Car Garage",,28.76123522,-81.93610538,A,P,jfPWrfuSAyU,249607
L65V.38,6995 SUGAR CREEK PATH,The Village of Lake Denham,Lake,Mockingbird,659000,3,2,2071,"2 Car, plus Golf Car Garage",,28.76320181,-81.93278323,A,P,,249740
L66V.7,1257 ELKINGTON RD,The Village of Lake Denham,Lake,Dove,685000,3,3,1914,"2 Car, plus Golf Car Garage",,28.76048041,-81.93119017,A,P,sM9WZZrM_j0,249000
L66V.15,1195 ELKINGTON RD,The Village of Lake Denham,Lake,Woodstar,539800,3,2,1861,2 Car Garage,,28.76050125,-81.92937335,A,P,Xcc-biE8HEo,250252
L66V.43,7067 TUCSON TRL,The Village of Lake Denham,Lake,Dove,888000,3,3,1930,"2 Car, plus Golf Car Garage",Swimming Pool,28.76163807,-81.92861022,A,P,,250065
L68V.13,1104 JOETTE PL,The Village of Lake Denham,Lake,Burrowing Owl,779000,3,3,2138,"2 Car, plus Golf Car Garage",,28.75798712,-81.92695646,A,P,A_xm0_GurX0,249769
L72V.48,929 EUGENE TER,The Village of Lake Denham,Lake,Pebble Beach,329900,3,2,1451,2 Car Garage,,28.75602285,-81.9217787,A,P,,249962
L57V.7,1619 AMY AVE,The Village of Lake Denham,Lake,Emerald,305000,2,2,1280,"1 Car, plus Golf Car Garage",,28.76560836,-81.94053697,A,P,,249674
L59V.10,1698 WILL LN,The Village of Lake Denham,Lake,Charlotte,355000,3,2,1499,2 Car Garage,,28.76209992,-81.94283277,A,P,,249981
L61V.5,7145 HOYT RD,The Village of Lake Denham,Lake,Avondale,489000,3,2,1711,"2 Car, plus Golf Car Garage",,28.75957713,-81.94043541,A,P,aDiCkzGbOxs,250542
L61V.7,1606 RHOADS CT,The Village of Lake Denham,Lake,Charlotte,379000,3,2,1499,2 Car Garage,,28.75926079,-81.94019416,A,P,Bdo4_Vrb9TE,249273
L62V.44,7180 FAY CT,The Village of Lake Denham,Lake,Cottage,225000,1,1,854,"1 Car, plus Golf Car Garage",,28.75838058,-81.93857155,A,P,,249648
L64V.37,1428 KENNETH ST,The Village of Lake Denham,Lake,Eaton,390000,3,2,1558,2 Car Garage,,28.7561675,-81.93554721,A,P,WmW5SA_Lg94,250359
L67V.2,1186 LACHAPELLE LN,The Village of Lake Denham,Lake,Moonstone,294900,2,2,1300,"1 Car, plus Golf Car Garage",,28.75792015,-81.92909902,A,P,,250308
L67V.43,1195 LACHAPELLE LN,The Village of Lake Denham,Lake,Moonstone,299555,2,2,1300,"1 Car, plus Golf Car Garage",,28.75829217,-81.92902947,A,P,ItewVXtNJsE,249259
L70V.8,1108 WALSH LN,The Village of Lake Denham,Lake,Avondale,419900,3,2,1711,"2 Car, plus Golf Car Garage",,28.7556069,-81.92657053,A,P,,249180
L70V.24,7263 TRUDY TER,The Village of Lake Denham,Lake,Charlotte,389000,3,2,1499,2 Car Garage,,28.75618709,-81.92490489,A,P,,249577
L70V.34,1085 BRINER PL,The Village of Lake Denham,Lake,Charlotte,439999,3,2,1499,2 Car Garage,,28.75675212,-81.92587196,A,P,-klCQ2XstAw,249443
